artist,title,date,eventUrl,artists,venue_name,area_name,country_name,area_name_country,location,lattitude,longitude,coordinates,latitude
&ME,&ME en Medellín,2025-03-08T00:00:00.000,/events/2089164,&ME,Orquideorama - Jardin Botanico,Medellin,Colombia,"Medellin, Colombia","Medellin, Colombia",6.269732449999999,-75.60255965090315,"(6.269732449999999, -75.60255965090315)",6.269732449999999
&ME,&ME (Keine Musik) India Tour 2025,2025-03-22T00:00:00.000,/events/2077900,&ME,Mahalakshmi Race Course,Mumbai,India,"Mumbai, India","Mumbai, India",6.269732449999999,72.8692035,"(19.054999, 72.8692035)",19.054999
&ME,krankbrother presents: Keinemusik,2025-06-15T00:00:00.000,/events/2039899,Adam Port_&ME_Rampa,Gunnersbury Park,London,United Kingdom,"London, United Kingdom","London, United Kingdom",6.269732449999999,-0.1277653,"(51.5074456, -0.1277653)",51.5074456
&ME,Keinemusik,2025-08-23T00:00:00.000,/events/2004542,Rampa_&ME_Adam Port,Tempelhof Airport,Berlin,Germany,"Berlin, Germany","Berlin, Germany",6.269732449999999,13.3989367,"(52.510885, 13.3989367)",52.510885
&ME,&ME,2026-02-09T00:00:00.000,/events/2108230,&ME,TBA,San Jose,United States of America,"San Jose, United States of America","San Jose, United States of America",6.269732449999999,-121.890591,"(37.3361663, -121.890591)",37.3361663
Adam Port,ADAM PORT // MUSEU DO AMANHÃ // CARNAVAL RIO DE JANEIRO,2025-03-01T00:00:00.000,/events/2089176,Adam Port_Aline Rocha,TBA - Museu do Amanhã,Rio de Janeiro,Brazil,"Rio de Janeiro, Brazil","Rio de Janeiro, Brazil",6.269732449999999,-43.2093727,"(-22.9110137, -43.2093727)",-22.9110137
Adam Port,MONKEY PROJECT PRESENTS: Adam Port ISTANBUL,2025-05-10T00:00:00.000,/events/2059599,Adam Port,Tersane Istanbul Grand Factory,Istanbul,Turkey,"Istanbul, Turkey","Istanbul, Turkey",6.269732449999999,28.9758715,"(41.006381, 28.9758715)",41.006381
Adam Port,krankbrother presents: Keinemusik,2025-06-15T00:00:00.000,/events/2039899,Adam Port_&ME_Rampa,Gunnersbury Park,London,United Kingdom,"London, United Kingdom","London, United Kingdom",6.269732449999999,-0.1277653,"(51.5074456, -0.1277653)",51.5074456
Adam Port,Keinemusik,2025-08-23T00:00:00.000,/events/2004542,Rampa_&ME_Adam Port,Tempelhof Airport,Berlin,Germany,"Berlin, Germany","Berlin, Germany",6.269732449999999,13.3989367,"(52.510885, 13.3989367)",52.510885
ANOTR,ANOTR,2025-02-22T00:00:00.000,/events/2062050,ANOTR,Savaya Bali,Bali,Indonesia,"Bali, Indonesia","Bali, Indonesia",6.269732449999999,115.1919203,"(-8.2271303, 115.1919203)",-8.2271303
ANOTR,ANOTR - On A Trip - Australia 2025,2025-02-28T00:00:00.000,/events/2034704,ANOTR,UNSW Roundhouse,Sydney,Australia,"Sydney, Australia","Sydney, Australia",6.269732449999999,151.2082848,"(-33.8698439, 151.2082848)",-33.8698439
ANOTR,ANOTR - On A Trip - Australia 2025,2025-03-01T00:00:00.000,/events/2034642,ANOTR,Pica (Port Melbourne Industrial Centre for the Arts),Melbourne,Australia,"Melbourne, Australia","Melbourne, Australia",6.269732449999999,144.9631732,"(-37.8142454, 144.9631732)",-37.8142454
ANOTR,Lost Sundays - March 2 w. ANOTR,2025-03-02T00:00:00.000,/events/2098310,ANOTR_Caleb Jackson_Elijah Something_Silly Lily,The Ivy,Sydney,Australia,"Sydney, Australia","Sydney, Australia",6.269732449999999,151.2082848,"(-33.8698439, 151.2082848)",-33.8698439
ANOTR,ANOTR & MORE ARTISTS - by ALDEA & NATIVE,2025-03-14T00:00:00.000,/events/2048917,ANOTR,"TBA - Native Beach Club, Cardales",Buenos Aires,Argentina,"Buenos Aires, Argentina","Buenos Aires, Argentina",6.269732449999999,-58.4440583,"(-34.6083696, -58.4440583)",-34.6083696
ANOTR,Teksupport: ANOTR,2025-03-21T00:00:00.000,/events/2058562,ANOTR,Brooklyn Storehouse,New York City,United States of America,"New York City, United States of America","New York City, United States of America",6.269732449999999,-74.0060152,"(40.7127281, -74.0060152)",40.7127281
ANOTR,ANOTR,2025-03-22T00:00:00.000,/events/2057984,ANOTR,Radius,Chicago,United States of America,"Chicago, United States of America","Chicago, United States of America",6.269732449999999,-87.6244212,"(41.8755616, -87.6244212)",41.8755616
ANOTR,ANOTR Opening Weekend,2025-04-27T00:00:00.000,/events/2096508,ANOTR,Pacha Ibiza,Ibiza,Spain,"Ibiza, Spain","Ibiza, Spain",6.269732449999999,1.4197463178515335,"(38.974390099999994, 1.4197463178515335)",38.974390099999994
ANOTR,Primavera Sound 2025 Barcelona,2025-06-05T00:00:00.000,/events/2088729,Charli XCX_FKA twigs_Jamie xx_Amelie Lens_ANOTR_Floating Points_Brutalismus 3000_LCD Soundsystem_Salem_Nicola Cruz_Crystallmess_John Talabot_DJ Dustin_Kelly Lee Owens_DJ Koze_DJ Python_Danny L Harle_Isabella Lovestory_mad miran_Joy Orbison_Machine Girl_Moritz von Oswald,Parc del Fòrum,Barcelona,Spain,"Barcelona, Spain","Barcelona, Spain",6.269732449999999,2.1774322,"(41.3828939, 2.1774322)",41.3828939
ANOTR,Lisb-ON #JARDIMSONORO 2025,2025-06-27T00:00:00.000,/events/2054068,ANOTR_Ben Böhmer_Speedy J_Gabrielle Kwarteng_Maceo Plex_Dennis Cruz_Adiel_Daria Kolosova_DJ Pete_DJ TOOL_Tijana T_Sugar Free_Raresh_Petre Inspirescu_Rhadoo,TBA - Anfiteatro Keil do Amaral,Lisbon,Portugal,"Lisbon, Portugal","Lisbon, Portugal",6.269732449999999,-9.1365919,"(38.7077507, -9.1365919)",38.7077507
ANOTR,Kappa FuturFestival 2025,2025-07-04T00:00:00.000,/events/2065538,Adam Beyer_Maceo Plex_Airod_ANXHELA_Alignment_Anyma_Artbat_Azyr_Binh_Caribou_Carl Cox_Charlotte de Witte_Cloudy_NOVAH_Dixon_DJ Hell_DJ Stingray 313_Helena Hauff_Donato Dozzy_Fleur Shore_Francesco Del Garda_Ben UFO_Joe Claussell_Ron Trent_Kevin de Vries_Miss Monique_Nico Moreno_Nina Kraviz_Ogazón_Ryan Elliott_Paco Osuna_Quest_Adiel_Reinier Zonneveld_Seth Troxler_Shlømo_Skream_Prospa_Tini Gessler_Vintage Culture_YOUniverse_Adrian Mills_BIIA_ANOTR_Bárbara Lago_Daniella da Silva_Basswell_Boris Brejcha_CCL_Chris Liebing_Christopher Coe_Diplo_Elli Acula_FJAAK_Enrico Sangiuliano_Eris Drew_Octo Octa_Fatima Koanda_Franky Wah_Mita Gami_Gandalf_Gene On Earth_Dyed Soundorom_Inner Lakes_Joseph Capriati_Lil' Louis_Marie Montexier_Simone de Kunovich_Mau P_Meduza_Nicola Gavino_O.BEE_Tomas Station_Octave One_Olympe_Peggy Gou_DJ Tennis_sizing_Solomun_The Exaltics_Voices From The Lake_Bad Boombox_Chris Avantgarde_Colin Benders_Dennis Cruz_The Martinez Brothers_Dexphase_Skryption_Dom Dolla_DVS1_Traxx_East End Dubs_Fiorella_Floating Points_Folamour_Jane Fitz_Kerri Chandler_KETTAMA_Lilly Palmer_Massano_Mathew Jonson_Nicola Mazzetti_Nicole Lovera_OGUZ_ØTTA_Patrick Mason_PAWSA_Sally C_Sneaker_Speedy J_Surgeon_Tatyana Jane_The Lady Machine_.VRIL_19:26,Parco Dora,Turin,Italy,"Turin, Italy","Turin, Italy",6.269732449999999,7.6824892,"(45.0677551, 7.6824892)",45.0677551
ANOTR,Lost Village 2025,2025-08-21T00:00:00.000,/events/2075508,Alex Kassian_Anish Kumar_ANOTR_Another Taste_ATRIP_Aurora Halal_Bambounou_Barbara Boeing_Barry Can't Swim_Bradley Zero_Ross From Friends_Caribou_Carlita_Cassius_CC:DISCO!_Erol Alkan_Chaos In The CBD_Chloé Caillet_Crazy P_Daisybelle_Damian Lazarus_Dan Shake_Danielle_Dee Diggs_Deer Jade_DESIREE (RSA)_Dixon_DJ Holographic_DJ Seinfeld_Ela Minus_Elias Mazian_FAFF_fka.m4a_Four Tet_Gabrielle Kwarteng_HAAi_Habibi Funk_Hannah Holland_Josh Caffé_Honey Dijon_Horse Meat Disco_Hunee_Jamz Supernova_Jennifer Loveless_Jimi Jules_Jorg Kuning_Joy Orbison_Julya Karma_Jyoty_Kirollus_Leon Vynehall_livwutang_Lovefoxy_LP Giobbi_Luke Alessi_LUXE_Maribou State_Marie Montexier_Mia Koden_MiNNA_Moopie_Moxie_Mr Scruff_Narciss_Nooriyah_OK Williams_Optimo (Espacio)_Pablo Bozzi_Palms Trax_Paurro_Pretty Girl_Roza Terenzi_Sally C_Sedef Adasï_SHEE_SHERELLE_Shubostar_System Olympia_Theo Kottis_Tourist_Wallace,Norton Disney,Midlands,United Kingdom,"Midlands, United Kingdom","Midlands, United Kingdom",6.269732449999999,-1.9646781758425385,"(52.505432, -1.9646781758425385)",52.505432
ascendant vierge,Freemusic Festival 2025,2025-06-27T00:00:00.000,/events/2104135,ascendant vierge_Cassie Raptor,Lac De Montendre,West,France,"West, France",France,6.269732449999999,1.8883335,"(46.603354, 1.8883335)",46.603354
ascendant vierge,Dour Festival 2025,2025-07-16T00:00:00.000,/events/2056426,Charlotte de Witte_Folamour_Brutalismus 3000_Marlon Hoffstadt_Adriatique_Bru C_Caspa_Rusko_Skream_Benga_Nico Moreno_Azyr_Sara Landry_Pendulum_ascendant vierge_Marc Rebillet_¥ØU$UK€ ¥UK1MAT$U_KI/KI,Dour Festival,All,Belgium,"All, Belgium",Belgium,6.269732449999999,4.6667145,"(50.6402809, 4.6667145)",50.6402809
Bad Boombox,BOILER ROOM at Cinecittà World,2025-02-21T00:00:00.000,/events/2056293,Simone_Mischluft_Juicy Romance_Bad Boombox_Prest,Cinecittà World,Rome,Italy,"Rome, Italy","Rome, Italy",6.269732449999999,12.4829321,"(41.8933203, 12.4829321)",41.8933203
Bad Boombox,Intercell Klokgebouw 2025,2025-02-22T00:00:00.000,/events/2005956,Anetha_Bad Boombox_Benwal_Cybersex_DJ Fuckoff_DJ Heartstring_Funk Tribu_Pegassi_Garbage Delight_Garbage Delight_Dissolver_Vall Du Son_SPFDJ_Daria Kolosova_Supergloss_Waxdiva,Klokgebouw,Eindhoven,Netherlands,"Eindhoven, Netherlands","Eindhoven, Netherlands",6.269732449999999,5.478633,"(51.4392648, 5.478633)",51.4392648
Bad Boombox,Boiler Room: Belgrade x Music Reactions,2025-03-07T00:00:00.000,/events/2064100,AISHA_EARGASM GOD_Juicy Romance_Mischluft_Bad Boombox_RAR_sim0ne,TBA - Port of Belgrade,Belgrade,Serbia,"Belgrade, Serbia","Belgrade, Serbia",6.269732449999999,20.4568974,"(44.8178131, 20.4568974)",44.8178131
Bad Boombox,Bad Boombox / Alba Franch,2025-03-13T00:00:00.000,/events/2083370,Bad Boombox_Alba Franch,Mondo,Madrid,Spain,"Madrid, Spain","Madrid, Spain",6.269732449999999,-3.7035825,"(40.4167047, -3.7035825)",40.4167047
Bad Boombox,DNA with Bad Boombox & Mija,2025-03-21T00:00:00.000,/events/2103514,Bad Boombox_Mija,DNA Club,Munich,Germany,"Munich, Germany","Munich, Germany",6.269732449999999,11.5753822,"(48.1371079, 11.5753822)",48.1371079
Bad Boombox,Komiks Rave: Day & Night with Bad Boombox & LOLSNAKE,2025-03-22T00:00:00.000,/events/2102339,Bad Boombox_LOLSNAKE_ishka machina_Kaotic_Takē_jardabpm_Fatty M_S.Tian_SJ Yellow_Zuzana Hakl_zazitech_DDK (1)_Broken Robot_Big Lil_Fembot,Teplárna Holešovice,Prague,Czech Republic,"Prague, Czech Republic","Prague, Czech Republic",6.269732449999999,14.446459273258009,"(50.0596288, 14.446459273258009)",50.0596288
Bad Boombox,Contra - Season Opening with Bad Boombox,2025-03-23T00:00:00.000,/events/2091025,Bad Boombox_KiNK_Janis Zielinski_Mija_Essy,Bronze Beach,All,Netherlands,"All, Netherlands",Netherlands,6.269732449999999,5.6343227,"(52.2434979, 5.6343227)",52.2434979
Bad Boombox,Rebels MX & Hot Meal presentan: Bad Boombox & Mischluft,2025-03-29T00:00:00.000,/events/2094324,Bad Boombox_Mischluft,TBA,Mexico City,Mexico,"Mexico City, Mexico","Mexico City, Mexico",6.269732449999999,-99.1331785,"(19.4326296, -99.1331785)",19.4326296
Bad Boombox,MMW Closing: Factory93 presents,2025-03-30T00:00:00.000,/events/2100925,AMMARA_Bad Boombox_Mischluft_BIIANCO_Clara Cuvé_Funk Tribu_Noise Mafia_ØTTA_Part Time Killer,Factory Town,Miami,United States of America,"Miami, United States of America","Miami, United States of America",6.269732449999999,-80.19362,"(25.7741728, -80.19362)",25.7741728
Bad Boombox,Desire x Hotmeal,2025-04-05T00:00:00.000,/events/2102467,"Bad Boombox_Janis Zielinski_slin_Tarkno_Ollie Lishman_Mija_Robin Tasi_Krackk_Daisy Weweh_SCHEPPAT_RUBI (R3, NYC)_Shrff_Valeby",Fusion Club,Münster,Germany,"Münster, Germany","Münster, Germany",6.269732449999999,7.6251879,"(51.9625101, 7.6251879)",51.9625101
Bad Boombox,BCCO x SWING pres. Bad Boombox & DJ Hyperdrive,2025-04-18T00:00:00.000,/events/2091402,Bad Boombox_DJ Hyperdrive_Luxi Villar,INPUT High Fidelity Dance Club,Barcelona,Spain,"Barcelona, Spain","Barcelona, Spain",6.269732449999999,2.1774322,"(41.3828939, 2.1774322)",41.3828939
Bad Boombox,Terminal V Festival 2025,2025-04-19T00:00:00.000,/events/2049149,999999999_Adrian Mills_AK SPORTS_Alex Farell_ALT8_Azyr_Bad Boombox_Mischluft_Benwal_BIIA_Black Traffic_Blawan_Helena Hauff_Brutalismus 3000_CADZOW_Carmen Electro_Laure Croft_CARV_Charlie Sparks_Parfait_Clara Cuvé_Clouds_Cloudy_Daria Kolosova_Dax J_Deborah De Luca_DJ Hyperdrive_DYEN_EARGASM GOD_ECZODIA_Fish56Octagon_fumi (DE)_Funk Assault_Funk Tribu_Holy Priest_JAZZY (2)_Justin Jay_KETTAMA_Kyle Starkey_LB aka LABAT_Luca Agnelli_Noise Mafia_Odymel_OGUZ_Patrick Mason_PRADA 2000_Reinier Zonneveld_Serafina_SIKOTI_sim0ne_t e s t p r e s s_The Muffin Man_Tommy Holohan_Vendex_WILDERÍCH_X CLUB._zwilling.,Royal Highland Centre,Edinburgh,United Kingdom,"Edinburgh, United Kingdom","Edinburgh, United Kingdom",6.269732449999999,-3.1883749,"(55.9533456, -3.1883749)",55.9533456
Bad Boombox,Oranjebloesem Festival 2025,2025-04-26T00:00:00.000,/events/2058515,Anfisa Letyago_Benwal_Eva Vrijdag_KETTAMA_Tjade_Maruwa_Young Marco_Benny Rodrigues_De Sluwe Vos_Kolter_Marsolo_Morgan_Hannecart_Prunk_Luuk van Dijk_Samuel Deep_Julian Anthony_Cynthia Spiering_DIØN_Lena_Shlømo_SNTS_Vendex_Bad Boombox_Diffrent_Kyle Starkey_Rozie_LAMMER_MCR-T_SAIDAH_Emma Champagne Queen_Foxy Fahrenheit_Slimfit,Olympisch Stadion,Amsterdam,Netherlands,"Amsterdam, Netherlands","Amsterdam, Netherlands",6.269732449999999,4.8924534,"(52.3730796, 4.8924534)",52.3730796
Bad Boombox,Hot Meal,2025-05-30T00:00:00.000,/events/2062990,Bad Boombox_Janis Zielinski_Justin Jay_Linus Villa_Mija_Mischluft_Ollie Lishman,Else,Berlin,Germany,"Berlin, Germany","Berlin, Germany",6.269732449999999,13.3989367,"(52.510885, 13.3989367)",52.510885
Bad Boombox,Soenda Outdoor Festival,2025-05-31T00:00:00.000,/events/2072557,Cynthia Spiering_FJAAK_Bad Boombox_Funk Tribu_Daria Kolosova_Funk Assault_APHØTIC_Alignment_ALT8_Basswell_DIØN_DJUS_DURDENHAUER_Félicie_Grace Dahl_Helena Lauwaert_Iris Rijskamp_Justin Tinderdate_EloTrance_KUKO_Kyle Starkey_LAMMER_Odymel_Rozie_Stan Christ_SUPERSTRINGS_TLM Airlines_Tjade_Lucky Done Gone_Moody Mehran_Upper90,Ruigenhoekse Polder,Utrecht,Netherlands,"Utrecht, Netherlands","Utrecht, Netherlands",6.269732449999999,5.1215634,"(52.0907006, 5.1215634)",52.0907006
Bad Boombox,Distortion 2025,2025-06-04T00:00:00.000,/events/2057470,Clara Cuvé_Funk Tribu_Innellea_Kobosil_Marlon Hoffstadt_Axel Boman_BASHKKA_Franziska Berns_Isolee_Aja Gulris_Christian Sanchez_Gavnlig_Gina Sabatini_GÆO_Kardinal Bertram_Milo Makua_Phloem_Adam Ten_Mita Gami_Alignment_Bad Boombox_KI/KI_Peggy Gou_AISHA_Ata_Caleesi_Sarah Kreis_Maruwa_Massimiliano Pagliara_Monkey Safari_Nandu_Andrés Solar_Carlo_Selma_CERJ_Jorkes_Kotoe_Mari to the future_pai-lin,TBA,Copenhagen,Denmark,"Copenhagen, Denmark","Copenhagen, Denmark",6.269732449999999,12.5700724,"(55.6867243, 12.5700724)",55.6867243
Bad Boombox,PollerWiesen Festival 2025,2025-06-08T00:00:00.000,/events/1929819,Adrian Mills_DBBD_Anna Konda_Ramón Zappa_Bad Boombox_Mischluft_BASHKKA_Cloudy_CLTX_EloTrance_Justin Tinderdate_fumi (DE)_Serafina_Funk Tribu_Freddy K_JAXX TMS_Kalte Liebe_KUKO_Neon Graveyard_Krackk_MARRØN_Miss Bashful x DBBD_Ogazón_Pegassi_Philippa Pacho_Schwesta P_SHOKI287_Somewhen_southstar,Revierpark Wischlingen,Dortmund / Essen,Germany,"Dortmund / Essen, Germany","Dortmund / Essen, Germany",6.269732449999999,7.0214361,"(51.4549925, 7.0214361)",51.4549925
Bad Boombox,Ikarus Festival 2025,2025-06-06T00:00:00.000,/events/2005844,Alignment_Armin van Buuren_Boris Brejcha_Deborah De Luca_Fisher (OZ)_Scooter_999999999_Alfred Heinrichs_Amelie Lens_Charlie Sparks_Ellen Allien_Holy Priest_Kalte Liebe_I Hate Models_Kobosil_Lauren Mia_Moritz Hofbauer_Sam Paganini_Schrotthagen_STELLA BOSSI_T78_Alle Farben_Da Tweekaz_Kevin de Vries_LOVRA_MAUSIO_AKA AKA_fka.m4a_Format B_Moonbootica_Angerfist_Deadly Guns_Dual Damage_Dr Donk_Krowdexx_NAMARA_Radical Redemption_Unicorn on Ketamine_Adrian Mills_Afem Syko_Bad Boombox_Cleopard2000_DJ YARAK_DJ Hyperdrive_ÜBERKIKZ_Justin Tinderdate_EloTrance_Mika Heggemann_Mischluft_Odymel_ØTTA_Paraçek_PRADA 2000_Somewhen_Trancemaster Krause_6EJOU_A.N.I._CALLUSH_CARV_Cloudy_CLTX_LESSSS_Johannes Schuster_In Verruf_KUKO_Lee Ann Roberts_NOVAH_Nusha_Rebekah_Vendex_Winson_Querox,Allgäu Airport - Flughafen Memmingen,Bavaria,Germany,"Bavaria, Germany","Bavaria, Germany",6.269732449999999,11.4038717,"(48.9467562, 11.4038717)",48.9467562
Bad Boombox,Waves Open Air 2025,2025-06-14T00:00:00.000,/events/2060671,Aiden (DE)_Arman John_Bad Boombox_Benwal_CAIVA_Clara Cuvé_Cloudy_Daria Kolosova_Dax J_DJ Gigola_DJ Hyperdrive_EloTrance_Justin Tinderdate_Funk Tribu_Janis Zielinski_KlangKuenstler_Kobosil_Somewhen_Melushka_Mischluft_Odymel_Upper90_ÜBERKIKZ,Spaßbad Wedemark,Hannover,Germany,"Hannover, Germany","Hannover, Germany",6.269732449999999,9.7385532,"(52.3744779, 9.7385532)",52.3744779
Bad Boombox,Modular at the Beach,2025-06-15T00:00:00.000,/events/2101416,Bad Boombox_Essy_LAMMER_Moody Mehran,Boomerang Beach,The Hague,Netherlands,"The Hague, Netherlands","The Hague, Netherlands",6.269732449999999,4.3113461,"(52.0799838, 4.3113461)",52.0799838
Bad Boombox,HIVE Festival 2025,2025-06-20T00:00:00.000,/events/2037351,6EJOU_A.N.I._Adiel_Adrian Mills_Adriana Lopez_Afem Syko_Alignment_AMBAM_Anetha_Angerfist_Answer Code Request_Soraya_Astrix_AVALON_Bad Boombox_Mischluft_Basswell_Ben Klock_Bloodlust_Bollmann_BYØRN_Captain Hook_CARAVEL_CARV_Cera Khin_Charlie Sparks_Chlär_Chris Liebing_Cleopard2000_Mika Heggemann_Cloudy_David Löhlein_Dax J_DETEST_Diffrent_DJ Fuckoff_Doruksen_Dual Damage_Fantasm_Fenrick_Funk Tribu_future.666_Hades_Holy Priest_HU_I Hate Models_IGDA_Indira Paganotto_Infected Mushroom_JAZZY (2)_Kalte Liebe_KARAH_KI/KI_Kø:lab_Kobosil_Krypton_KUKO_Lee Ann Roberts_Levt_Maiko_MALUGI_Matrixxman_Miss Bashful_DBBD_Nico Moreno_Nicolas Julian_Nikolina_NOTMYTYPE (2)_NOVAH_Nusha_O.B.I. (DE)_Odymel_Ollie Lishman_Janis Zielinski_OMAKS_Oscar Mulero_ØTTA_Paraçek_Parrish Smith_Patrick Mason_Pawlowski (UK)_Pegassi_Phase Fatale_PRADA 2000_Part Time Killer_Raxeller_RIKHTER_Schrotthagen_Setaoc Mass_Shlømo_SHOKI287_CLTX_SIKOTI_Somewhen_SPFDJ_Stef Mendesidis_Stephanie Sykes_Tau Ceti_Tommy Four Seven_Trancemaster Krause_Frederic._Tristan (2)_Upper90_Val Vashar_VIDO_VTSS_WILDERÍCH_zwilling._Serafina_Zeltak,Ferropolis,Leipzig,Germany,"Leipzig, Germany","Leipzig, Germany",6.269732449999999,12.3747329,"(51.3406321, 12.3747329)",51.3406321
Bad Boombox,Kappa FuturFestival 2025,2025-07-04T00:00:00.000,/events/2065538,Adam Beyer_Maceo Plex_Airod_ANXHELA_Alignment_Anyma_Artbat_Azyr_Binh_Caribou_Carl Cox_Charlotte de Witte_Cloudy_NOVAH_Dixon_DJ Hell_DJ Stingray 313_Helena Hauff_Donato Dozzy_Fleur Shore_Francesco Del Garda_Ben UFO_Joe Claussell_Ron Trent_Kevin de Vries_Miss Monique_Nico Moreno_Nina Kraviz_Ogazón_Ryan Elliott_Paco Osuna_Quest_Adiel_Reinier Zonneveld_Seth Troxler_Shlømo_Skream_Prospa_Tini Gessler_Vintage Culture_YOUniverse_Adrian Mills_BIIA_ANOTR_Bárbara Lago_Daniella da Silva_Basswell_Boris Brejcha_CCL_Chris Liebing_Christopher Coe_Diplo_Elli Acula_FJAAK_Enrico Sangiuliano_Eris Drew_Octo Octa_Fatima Koanda_Franky Wah_Mita Gami_Gandalf_Gene On Earth_Dyed Soundorom_Inner Lakes_Joseph Capriati_Lil' Louis_Marie Montexier_Simone de Kunovich_Mau P_Meduza_Nicola Gavino_O.BEE_Tomas Station_Octave One_Olympe_Peggy Gou_DJ Tennis_sizing_Solomun_The Exaltics_Voices From The Lake_Bad Boombox_Chris Avantgarde_Colin Benders_Dennis Cruz_The Martinez Brothers_Dexphase_Skryption_Dom Dolla_DVS1_Traxx_East End Dubs_Fiorella_Floating Points_Folamour_Jane Fitz_Kerri Chandler_KETTAMA_Lilly Palmer_Massano_Mathew Jonson_Nicola Mazzetti_Nicole Lovera_OGUZ_ØTTA_Patrick Mason_PAWSA_Sally C_Sneaker_Speedy J_Surgeon_Tatyana Jane_The Lady Machine_.VRIL_19:26,Parco Dora,Turin,Italy,"Turin, Italy","Turin, Italy",6.269732449999999,7.6824892,"(45.0677551, 7.6824892)",45.0677551
Bad Boombox,Glitch Festival 2025,2025-08-13T00:00:00.000,/events/2016418,Anetha_Aurora Halal_Bad Boombox_Bella Claxton_Benwal_CARV_Charlie Sparks_Chlär_Clara Cuvé_CLTX_Daria Kolosova_Dax J_DJ Fuckoff_DJ Gigola_DJ Heartstring_DJ Nobu_dj sweet6teen_THC_DJ TOOL_DYEN_Effy_Essy_Freddy K_Alarico_Frederic._Funk Tribu_Human Safari_I Hate Models_Interplanetary Criminal_Janis Zielinski_Justin Jay_Mija_KETTAMA_Kyle Starkey_LESSSS_MALUGI_Mama Snake_Maruwa_Miss Bashful x DBBD_Moxes_MRD (NO)_Bae Blade_ØTTA_Pablo Bozzi_Peach_Pegassi_Philippa Pacho_Quest_Rene Wise_Rødhåd_Sam Alfred_Sara Landry_Setaoc Mass_Shanti Celeste_SHDW_ANNĒ_Spacer Woman_SPFDJ_Supergloss_Tasha_Upper90_VTSS_Yanamaste_Acidulant_Sound synthesis (2)_Fresh Prince_Budg_T-RAIL_Damz_Echofaze_Georg MT_INVERTED (MT)_Kyle Cortis_Manthrax_Parvatis_Reactant_Scythe_Sean Rickett_STK (MT)_YAZMIN (MT),Gianpula Village,All,Malta,"All, Malta",Malta,6.269732449999999,14.4476911,"(35.8885993, 14.4476911)",35.8885993
Bad Boombox,Sonus Croatia 2025,2025-08-17T00:00:00.000,/events/1990681,Adam Beyer_Adriatique_Alex Wann_ALISHA_Anetha_Artbat_Bedouin_Ben Hemsley_Ben Klock_Ben Sterling_Boris Brejcha_Deborah De Luca_Dennis Cruz_DJ Heartstring_Fatima Hajji_FJAAK_Fleur Shore_Funk Tribu_Bad Boombox_Gordo_Indira Paganotto_Jan Blomqvist_Joseph Capriati_KI/KI_Loco Dice_Lovefoxy_Mau P_Miss Monique_Nico Moreno_Ogazón_ØTTA_Partiboi69_Patrick Mason_Reinier Zonneveld_Ricardo Villalobos_Richie Hawtin_Seth Troxler_Shimza_Sven Vath_Trym_Vintage Culture_WhoMadeWho,Zrce Beach,All,Croatia,"All, Croatia",Croatia,6.269732449999999,15.6575209,"(45.3658443, 15.6575209)",45.3658443
Baron Von Trax,unceen with Paraçek & Baron Von Trax,2025-02-21T00:00:00.000,/events/2061707,Paraçek_Baron Von Trax_Cherries040_LAURIX (DE)_Ynk (2)_dxrvo_J-DEK_Esoterik_Lora (2),Südpol,Hamburg,Germany,"Hamburg, Germany","Hamburg, Germany",6.269732449999999,10.000654,"(53.550341, 10.000654)",53.550341
Baron Von Trax,slippy xoxo,2025-02-22T00:00:00.000,/events/2084383,Baron Von Trax_ENERGY TAPE_MASSAGIO_SPEEDBOYS,Rote Sonne,Munich,Germany,"Munich, Germany","Munich, Germany",6.269732449999999,11.5753822,"(48.1371079, 11.5753822)",48.1371079
Baron Von Trax,Baron Von Trax / Gerardo Niva / Kara Okay,2025-03-01T00:00:00.000,/events/2067326,Baron Von Trax_Gerardo Niva,Mondo,Madrid,Spain,"Madrid, Spain","Madrid, Spain",6.269732449999999,-3.7035825,"(40.4167047, -3.7035825)",40.4167047
Benwal,Spectra Cinema Show - Benwal / Duskus / Leo Pol / Mushu,2025-02-21T00:00:00.000,/events/2084680,Benwal_Duskus_Leo Pol,TBA - Liege,All,Belgium,"All, Belgium",Belgium,6.269732449999999,4.6667145,"(50.6402809, 4.6667145)",50.6402809
Benwal,Intercell Klokgebouw 2025,2025-02-22T00:00:00.000,/events/2005956,Anetha_Bad Boombox_Benwal_Cybersex_DJ Fuckoff_DJ Heartstring_Funk Tribu_Pegassi_Garbage Delight_Garbage Delight_Dissolver_Vall Du Son_SPFDJ_Daria Kolosova_Supergloss_Waxdiva,Klokgebouw,Eindhoven,Netherlands,"Eindhoven, Netherlands","Eindhoven, Netherlands",6.269732449999999,5.478633,"(51.4392648, 5.478633)",51.4392648
Benwal,Benwal at Garage,2025-02-22T00:00:00.000,/events/2082003,Benwal_Leo Pol_Upper90_Hurts_Rozie,Garage Klub,Antwerp,Belgium,"Antwerp, Belgium","Antwerp, Belgium",6.269732449999999,4.3997081,"(51.2211097, 4.3997081)",51.2211097
Benwal,Halbwelt,2025-02-28T00:00:00.000,/events/2096160,Benwal_Linus Villa_DJ FEELTOOMUCH,Lehmann Club,Stuttgart,Germany,"Stuttgart, Germany","Stuttgart, Germany",6.269732449999999,9.1800132,"(48.7784485, 9.1800132)",48.7784485
Benwal,Benwal,2025-03-07T00:00:00.000,/events/2099364,Benwal,Das Zimmer,Mannheim,Germany,"Mannheim, Germany","Mannheim, Germany",6.269732449999999,8.4673098,"(49.4892913, 8.4673098)",49.4892913
Benwal,"ENCORE: MALUGI, Benwal, P_errine, Abstract Syndicate",2025-03-14T00:00:00.000,/events/2101580,MALUGI_Benwal_P errine,Le Petit Salon,Lyon,France,"Lyon, France","Lyon, France",6.269732449999999,4.8320114,"(45.7578137, 4.8320114)",45.7578137
Benwal,"Faster Horses [b2b All Night Long] ft. Benwal, Diffrent, EMILIJA + MORE",2025-03-21T00:00:00.000,/events/2082159,Faster Horses_Auramatic_Benwal_Diffrent_EMILIJA_Leaha_Mika Heggemann,The Cause,London,United Kingdom,"London, United Kingdom","London, United Kingdom",6.269732449999999,-0.1277653,"(51.5074456, -0.1277653)",51.5074456
Benwal,Glitch Melbourne,2025-04-12T00:00:00.000,/events/2099153,STÜM_ØTTA_Narciss_Benwal_Crybaby,Pica (Port Melbourne Industrial Centre for the Arts),Melbourne,Australia,"Melbourne, Australia","Melbourne, Australia",6.269732449999999,144.9631732,"(-37.8142454, 144.9631732)",-37.8142454
Benwal,Terminal V Festival 2025,2025-04-19T00:00:00.000,/events/2049149,999999999_Adrian Mills_AK SPORTS_Alex Farell_ALT8_Azyr_Bad Boombox_Mischluft_Benwal_BIIA_Black Traffic_Blawan_Helena Hauff_Brutalismus 3000_CADZOW_Carmen Electro_Laure Croft_CARV_Charlie Sparks_Parfait_Clara Cuvé_Clouds_Cloudy_Daria Kolosova_Dax J_Deborah De Luca_DJ Hyperdrive_DYEN_EARGASM GOD_ECZODIA_Fish56Octagon_fumi (DE)_Funk Assault_Funk Tribu_Holy Priest_JAZZY (2)_Justin Jay_KETTAMA_Kyle Starkey_LB aka LABAT_Luca Agnelli_Noise Mafia_Odymel_OGUZ_Patrick Mason_PRADA 2000_Reinier Zonneveld_Serafina_SIKOTI_sim0ne_t e s t p r e s s_The Muffin Man_Tommy Holohan_Vendex_WILDERÍCH_X CLUB._zwilling.,Royal Highland Centre,Edinburgh,United Kingdom,"Edinburgh, United Kingdom","Edinburgh, United Kingdom",6.269732449999999,-3.1883749,"(55.9533456, -3.1883749)",55.9533456
Benwal,Garnizoen 2025,2025-04-20T00:00:00.000,/events/2088853,Boys Noize_MALUGI_Benwal_EMILIJA_séa (BE)_Anfisa Letyago_Joyhauser_Adiel_Klaps_Axel Haube_Pelace,Be Mine,All,Belgium,"All, Belgium",Belgium,6.269732449999999,4.6667145,"(50.6402809, 4.6667145)",50.6402809
Benwal,CLUB NO WIFI X NOUW hosted by Paradigm,2025-04-25T00:00:00.000,/events/2104177,Benwal_MALUGI_Valeby_Aldonna_Ambu Bambu,Zeefgebouw,All,Netherlands,"All, Netherlands",Netherlands,6.269732449999999,5.6343227,"(52.2434979, 5.6343227)",52.2434979
Benwal,Oranjebloesem Festival 2025,2025-04-26T00:00:00.000,/events/2058515,Anfisa Letyago_Benwal_Eva Vrijdag_KETTAMA_Tjade_Maruwa_Young Marco_Benny Rodrigues_De Sluwe Vos_Kolter_Marsolo_Morgan_Hannecart_Prunk_Luuk van Dijk_Samuel Deep_Julian Anthony_Cynthia Spiering_DIØN_Lena_Shlømo_SNTS_Vendex_Bad Boombox_Diffrent_Kyle Starkey_Rozie_LAMMER_MCR-T_SAIDAH_Emma Champagne Queen_Foxy Fahrenheit_Slimfit,Olympisch Stadion,Amsterdam,Netherlands,"Amsterdam, Netherlands","Amsterdam, Netherlands",6.269732449999999,4.8924534,"(52.3730796, 4.8924534)",52.3730796
Benwal,AFTERPARTY: Benwal / Gerardo Niva,2025-05-01T00:00:00.000,/events/2093398,Benwal_Gerardo Niva,Mondo,Madrid,Spain,"Madrid, Spain","Madrid, Spain",6.269732449999999,-3.7035825,"(40.4167047, -3.7035825)",40.4167047
Benwal,OPEN AIR #1: DJ Heartstring / Benwal / Gerardo Niva / Hello Sasy,2025-05-01T00:00:00.000,/events/2093395,DJ Heartstring_Benwal_Gerardo Niva_Hello Sasy,Terraza Jowke,Madrid,Spain,"Madrid, Spain","Madrid, Spain",6.269732449999999,-3.7035825,"(40.4167047, -3.7035825)",40.4167047
Benwal,Mint Festival 2025,2025-05-03T00:00:00.000,/events/2066490,Aletha_Alexandria_Annie Errez_Benwal_Danny Bond_Diffrent_East End Dubs_Enzo Siragusa_Franky Rizardo_Interplanetary Criminal_Josh Baker_Kolter_Kyle Starkey_Locklead_Luke Dean__Mall Grab_Max Dean_Marsolo_Morgan Seatree_Oden_Fatzo_Or:la_Paige Tomlinson_Sally C_Seth Troxler_Silva Bumpa (2)_Soul Mass Transit System_Sweely_Traumer_Obskur_Gaskin_L.P. Rhythm,Newsam Green Farm,Leeds,United Kingdom,"Leeds, United Kingdom","Leeds, United Kingdom",6.269732449999999,-1.5437941,"(53.7974185, -1.5437941)",53.7974185
Benwal,UPCLOSE 2025,2025-05-17T00:00:00.000,/events/1932477,999999999_Adiel_Ogazón_Akua_Mac Declos_Alarico_Anetha_Patrick Mason_ANNĒ_SHDW_Bae Blade_Ben Klock_Ignez_Benny Rodrigues_Benwal_Janis Zielinski_Beste Hira_Yanamaste_BIIA_Blasha & Allatt_Tasha_Carlos Valdes_Cassy_Charlie Sparks_Chris Stussy_Sally C_Cloudy_CLTX_Cristian Varela_Marco Bailey_Cybersex_Cynthia Spiering_Diffrent_DJ EZ_DJ Fuckoff_DJ Rush_Donato Dozzy_Jane Fitz_Emvae_Fafi Abdel Nour_Fireground_Force Reaction_François X_Grace Dahl_fumi (DE)_Genex_Holden Federico_Ineffekt_Moody Mehran_Isaiah (NL)_Vromo_JakoJako_Philippa Pacho_Jeff Mills_KETCH_KI/KI_Kobosil_Lobster (NL)_Loek Frey_Shoal_Luigi Tozzi_Marcal_Yant_MARRØN_Rødhåd_Natalie Robinson_Nelly_Obscure Shape_Olivia Mendez_ORBE_Psyk_Oscar Mulero_Red Rooms_Rrose_Surgeon_SNTS_SPFDJ_Stef Mendesidis_stranger (NL)_Truncate_Talismann_Temudo_Traumer_ÜBERKIKZ_Zisko,Spaarnwoude (Deelplan Houtrak),Amsterdam,Netherlands,"Amsterdam, Netherlands","Amsterdam, Netherlands",6.269732449999999,4.8924534,"(52.3730796, 4.8924534)",52.3730796
Benwal,Drift Festival 2025,2025-06-07T00:00:00.000,/events/2088058,Arp Frique_BASHKKA_Batune_Ben Sims_Blasha & Allatt_Benny Rodrigues_Benwal_DJ BORING_Chlär_Cleanfield_Elias Mazian_Luuk van Dijk_JakoJako_jannah_Julia van Praag_Jungle By Night_Lefto Early Bird_Sassy J_Locus Error_De Sluwe Vos_Mario Marini_Eternal Love_Roza Terenzi_Sam Alfred_Sozef_mance_Spray_The Trip_Georgia Girl_Tsudi_Unalome_X CLUB.,Nyma-Terrein,Nijmegen,Netherlands,"Nijmegen, Netherlands","Nijmegen, Netherlands",6.269732449999999,5.838960628748229,"(51.842574850000005, 5.838960628748229)",51.842574850000005
Benwal,Extrema Outdoor Belgium 2025,2025-06-06T00:00:00.000,/events/2072755,6EJOU_999999999_Aaron Hibell_Afem Syko_ALT8_Samm_Amber Broos_Andres Campo_Apollonia_ARODES_Axel Haube_Azyr_Bae Blade_Ben Böhmer_Benwal_Bora Uzer_Brina Knauss_BYØRN_Calussa_Chelina Manuhutu_Dexphase_Diffrent_DJ BORING_MrD_DJ Fuckoff_DJ Gigola_DJ Heartstring_DJEFF_Eli Brown_EMILIJA_Enrico Sangiuliano_Eric Prydz_Franky Rizardo_Funk Tribu_Gray Cosmo_Hannah Laing_Helena Lauwaert_HU_Hugel_Indira Paganotto_JAMIIE_Jan Blomqvist_Job Jobse_Joyhauser_Juliet Fox_Kamafaka_KARAH_Karim Soliman_KI/KI_Layla Benitez_LE YORA_Lilly Palmer_Lolu Menayed_Mad Dog_Mahmut Orhan_Marcel Fengler_MATRAKK_Maxim Lany_MCR-T_meera (NO)_Melanie Ribbe_Mika Heggemann_Milo Spykers_Mind Against_Miss Monique_MRAK_Nico Morano_Nico Moreno_NOVAH_OGUZ_Paco Osuna_Parkerstrange_Partiboi69_Philou Louzolo_Prospa_Prunk_Romina Mazzini_SALOME_Seth Troxler_Shimza_SONA (2)_Soraya_Space 92_Sparrow & Barbossa_SPFDJ_STEYA_SYREETA_The Element_Themba_Vintage Culture_Winson_Young Marco_Yulia Niko_Zamna Soundsystem_ØTTA_Azra Tekuma_Maharti_BDC (Aus)_Boatman_Calao_Christophe_Dauw_EMJIE_ESIN BOZ_Flieder_Herton_Jane Muss_Jasper Fioole_Kapibara_Kirsti_Lexx_Luna (1)_Marhu_Miamor_MOKER_Neon_Oulad Omar_Paige_Romy Janssen_Stefan Meser_Swart_Tijn Driessen,Kelchterhoef,All,Belgium,"All, Belgium",Belgium,6.269732449999999,4.6667145,"(50.6402809, 4.6667145)",50.6402809
Benwal,"Marvellous Island 2025, Day 2, Sunday June 8th",2025-06-08T00:00:00.000,/events/2055899,Hugel_Bedouin_Vladimir Cauchemar_Feder_DYEN_LESSSS_Joris Delacroix_Pawlowski_abs8lute_Benwal_Canelle Doublekick_Estella Boersma_Tommy Four Seven_Tauceti (FR)_ARODES_Mita Gami_Marina Trench_Chambord_Jordan Arts_Justin Jay_Mija_Noise Mafia_Philou_Gabbor_Ams (FR)_SLTBQ_Laura Super_Arthur Nozen_DJ Psychiatre,Plage De Torcy,Paris,France,"Paris, France","Paris, France",6.269732449999999,2.3200410217200766,"(48.8588897, 2.3200410217200766)",48.8588897
Benwal,Waves Open Air 2025,2025-06-14T00:00:00.000,/events/2060671,Aiden (DE)_Arman John_Bad Boombox_Benwal_CAIVA_Clara Cuvé_Cloudy_Daria Kolosova_Dax J_DJ Gigola_DJ Hyperdrive_EloTrance_Justin Tinderdate_Funk Tribu_Janis Zielinski_KlangKuenstler_Kobosil_Somewhen_Melushka_Mischluft_Odymel_Upper90_ÜBERKIKZ,Spaßbad Wedemark,Hannover,Germany,"Hannover, Germany","Hannover, Germany",6.269732449999999,9.7385532,"(52.3744779, 9.7385532)",52.3744779
Benwal,Lago Lago 2025,2025-06-27T00:00:00.000,/events/2033939,Angel D'lite_THC_Avalon Emerson_BELLA (NL)_Benwal_Bordello Soundsystem_Beesmunt Soundsystem_CARISTA_Cinnaman_Colyn_Dam Swindle_Daniel Monaco_John Noseda_Dixon_Doppelgang_Edward_Esther Dune_Fafi Abdel Nour_Jennifer Loveless_Hunee_I-F_Intergalactic Gary_ISAbella_Konstantin_Leafar Legov_Lola Haro_MALOU (NL)_Mano Le Tough_Map.ache_Marie Montexier_Marcel Dettmann_Marsman_Martha van Straaten_Natalie Robinson_Ogazón_Polynation_Retromigration_Roi Perez_Robag Wruhme_Axel Boman_RY X_Sarah Wild_Some Chemistry_Sedef Adasï_Slick Chick_The Trip_Tsepo_dj sweet6teen_Zombies In Miami,"Stroombroek, Braamt",All,Netherlands,"All, Netherlands",Netherlands,6.269732449999999,5.6343227,"(52.2434979, 5.6343227)",52.2434979
Benwal,AWAKENINGS FESTIVAL 2025,2025-07-11T00:00:00.000,/events/1963535,6EJOU_999999999_Adam Beyer_Adriatique_Alan Fitzpatrick_Alex Wann_Âme_AnD_Andres Campo_Anfisa Letyago_Azyr_Bart Skils_Ben Böhmer_Ben Klock_Benwal_BLONDEX_Bullzeye_Secret Cinema_Carl Cox_Carlita_Carmen Lisa (2)_Charlotte de Witte_Chris Stussy_Cincity_Clara Cuvé_Damian Lazarus_Daria Kolosova_Delano Legito_DIØN_Dixon_Jimi Jules_DJ Gigola_DJ Nobu_DJ Rush_Eli Brown_Ellen Allien_Elli Acula_Emvae_Enrico Sangiuliano_Estella Boersma_Fatima Hajji_FJAAK_Freddy K_Funk Assault_Funk Tribu_Hot Since 82_Prunk_Hyperaktivist_I Hate Models_Indira Paganotto_Innellea_Inox Traxx_Jamie Jones_Joseph Capriati_Joëlla Jackson_Joris Voorn_Josh Baker_Rossi_Joyhauser_Kasia (OFC)_KETTAMA_Kevin de Vries_Kobosil_LAMMER_LB aka LABAT_Len Faki_Locus Error_Lucky Done Gone_Luuk van Dijk_M-High_Marco Carola_MARRØN_Mau P_Mha iri_Milo Spykers_Mind Against_Miss Monique_Nina Kraviz_Noise Mafia_NOVAH_ØTTA_Pan-Pot_Pegassi_Popof_Space 92_Recondite_Reinier Zonneveld_Richie Hawtin_Rødhåd_Sara Landry_Setaoc Mass_Shimza_The Lady Machine_The Martinez Brothers_TWIENA_Vera Grace_Vintage Culture_VNTM_VTSS_X CLUB._Yulia Niko,Beekse Bergen,All,Netherlands,"All, Netherlands",Netherlands,6.269732449999999,5.6343227,"(52.2434979, 5.6343227)",52.2434979
Benwal,Terminal V Croatia 2025,2025-07-17T00:00:00.000,/events/2079039,999999999_Alarico_Alex Farell_Anfisa Letyago_Azyr_Basswell_Ben Sims_Benwal_blk._CARV_CLTX_Daria Kolosova_Dax J_Ellen Allien_Fish56Octagon_Franck_Hannah Laing_Héctor Oaks_KETTAMA_Kobosil_Lee Ann Roberts_LESSSS_Mall Grab_MARRØN_MCR-T_Mischluft_Miss Bashful x DBBD_Pegassi_PRADA 2000_Sam Alfred_Shlømo_sim0ne_SNTS_SPFDJ_Supergloss_Upper90_VTSS_X CLUB.,The Garden Tisno,All,Croatia,"All, Croatia",Croatia,6.269732449999999,15.6575209,"(45.3658443, 15.6575209)",45.3658443
Benwal,Teletech Festival 2025,2025-08-02T00:00:00.000,/events/2090179,Alex Farell_SIKOTI_ALT8_Basswell_Benwal_blk._Danielle Ciuro_DJ Kwamē_Die Klar_Aiden (DE)_Fantasm_Faster Horses_GRAVEDGR_Helena Lauwaert_Holy Priest_JAZZY (2)_Kander_KETTING_KLOFAMA_KTK (DE)_Kyle Starkey_Mischluft_Miss Bashful x DBBD_NOVAH_Odymel_Ollie Lishman_Pegassi_Princess Elf Bar_Leaha_Raxeller_Serafina_Somewhen_Trancemaster Krause_KIM SWIM_Vieze Asbak_Winson,Bowlers Exhibition Centre,Manchester,United Kingdom,"Manchester, United Kingdom","Manchester, United Kingdom",6.269732449999999,-2.2451148,"(53.4794892, -2.2451148)",53.4794892
Benwal,Glitch Festival 2025,2025-08-13T00:00:00.000,/events/2016418,Anetha_Aurora Halal_Bad Boombox_Bella Claxton_Benwal_CARV_Charlie Sparks_Chlär_Clara Cuvé_CLTX_Daria Kolosova_Dax J_DJ Fuckoff_DJ Gigola_DJ Heartstring_DJ Nobu_dj sweet6teen_THC_DJ TOOL_DYEN_Effy_Essy_Freddy K_Alarico_Frederic._Funk Tribu_Human Safari_I Hate Models_Interplanetary Criminal_Janis Zielinski_Justin Jay_Mija_KETTAMA_Kyle Starkey_LESSSS_MALUGI_Mama Snake_Maruwa_Miss Bashful x DBBD_Moxes_MRD (NO)_Bae Blade_ØTTA_Pablo Bozzi_Peach_Pegassi_Philippa Pacho_Quest_Rene Wise_Rødhåd_Sam Alfred_Sara Landry_Setaoc Mass_Shanti Celeste_SHDW_ANNĒ_Spacer Woman_SPFDJ_Supergloss_Tasha_Upper90_VTSS_Yanamaste_Acidulant_Sound synthesis (2)_Fresh Prince_Budg_T-RAIL_Damz_Echofaze_Georg MT_INVERTED (MT)_Kyle Cortis_Manthrax_Parvatis_Reactant_Scythe_Sean Rickett_STK (MT)_YAZMIN (MT),Gianpula Village,All,Malta,"All, Malta",Malta,6.269732449999999,14.4476911,"(35.8885993, 14.4476911)",35.8885993
Benwal,Onder De Radar Festival 2025,2025-08-29T00:00:00.000,/events/2104248,999999999_Benwal_BIIA_Dee Diggs_Diffrent_DJ Heartstring_Elias Mazian_Hadone_JASSS_livwutang_Luuk van Dijk_M-High_Mall Grab_Moxes_Oscar Mulero_Partiboi69_Pegassi_Remma_Leen (NL)_Sammy Virji_SAIDAH_Tjade_Winson_ZEUZ,Vliegbasis Twenthe,All,Netherlands,"All, Netherlands",Netherlands,6.269732449999999,5.6343227,"(52.2434979, 5.6343227)",52.2434979
Bicep,Nuits sonores 2025,2025-05-28T00:00:00.000,/events/2061315,Airod_DJ Physical_Bicep_Fasme_Korea Town Acid_LB aka LABAT_Luke Vibert_Minna-no-Kimochi_Moxie_Wallace_Soyoon_CallBackSami_Speedy J_Ellen Allien_John Maus_Mogwaa_O.B.F_Peggy Gou_Robert Hood_Mall Grab_Effy (DE)_Helena Hauff_LeLeon_Mees Javois_Mu540_Promesses_Shlømo_OPOSITION_Syrob_Anetha_Blood of Aza_Fanny_Mochakk_Saku Sahara_Laze_Salma Rosa_Wayatt_Âme_Azu Tiwaline_Forest Drive West_Burna_Cassius_Myd_Bambounou_Chlär_Jeff Mills_Lander (UK)_Mac Declos_Moktar_Patrick Mason_VEL (MA)_CCL_James K (UK)_Jennifer Cardini_Pablo Bozzi_KI/KI_Priori_Traumer_Basswell_Daria Kolosova_Lacchesi_Funk Assault_DJ SET (Uk)_Istigkeit_Manu Le Malin_OMAKS_Sklaer_BRUM (2)_Busy P_Mad Rey_Cashu_RHR_Johannes Brecht_Sara Persico_Solomun_BLACKCLUB_The Blessed Madonna_Farah (2)_Mouataz_Interplanetary Criminal_Naajet (2),"TBA - Lyon, Les Grandes Locos & La Sucrière",Lyon,France,"Lyon, France","Lyon, France",6.269732449999999,4.8320114,"(45.7578137, 4.8320114)",45.7578137
Bicep,FESTIVAL LE BON AIR 2025,2025-06-06T00:00:00.000,/events/2016221,Anetha_Bicep_Busy P_Chloé Caillet_Folamour_Greg (2)_IceMorph_KasbaH_mad miran_Skee Mask_Mia Koden_RAVL_SALOME_Richie Hawtin_SANA_Sassy J_shefox_Sweet Juju (FR)_Vanda Forte_VEL (MA)_YENKOV,Friche Belle de Mai,Marseille,France,"Marseille, France","Marseille, France",6.269732449999999,5.3699525,"(43.2961743, 5.3699525)",43.2961743
Bicep,We Love Green 2025,2025-06-06T00:00:00.000,/events/2088146,Amelie Lens_Paul Kalkbrenner_Air_FKA twigs_Gesaffelstein_LCD Soundsystem_Charli XCX_Kavinsky_Bicep_DJ Koze_Avalon Emerson_Polo & Pan_Marcel Dettmann,Bois de Vincennes,Paris,France,"Paris, France","Paris, France",6.269732449999999,2.3200410217200766,"(48.8588897, 2.3200410217200766)",48.8588897
Bicep,Sónar by Night 2025,2025-06-13T00:00:00.000,/events/2048250,Andres Campo_Arca_Armin van Buuren_Indira Paganotto_Barry Can't Swim_Bicep_Cora Novoa_Daito Manabe_Elkka_Emerald_Eric Prydz_Flore_Peder Mannerfelt_Four Tet_Hamdi_Helena Hauff_Interplanetary Criminal_Jayda G_Max Cooper_Paula Tape_Peggy Gou_Plastikman_Polo & Pan_Rone_Skrillex_Blawan_T.Modet_Tim Reaper_Vintage Culture,Fira Gran Via,Barcelona,Spain,"Barcelona, Spain","Barcelona, Spain",6.269732449999999,2.1774322,"(41.3828939, 2.1774322)",41.3828939
Bicep,"Parklife 2025, 14th - 15th June",2025-06-14T00:00:00.000,/events/2092487,Charli XCX_Peggy Gou_PAWSA_Bicep_Overmono_Confidence Man_Hybrid Minds_Rudimental_Chris Stussy_Marc Rebillet_Steve Angello_Ewan McVicar_Mochakk_Skream_Benga_Hedex_Bou (UK)_Andy C_Armand Van Helden_Josh Baker_KI/KI_DJ Heartstring_Joy Orbison_Interplanetary Criminal_Girls Don't Sync_Mau P_salute_Max Dean_Rossi_Partiboi69_MALUGI_Prospa_Sam Divine_Chloé Caillet_DJ Gigola_Alex Farell_D.O.D._Paul Woolford_Fish56Octagon_Mella Dee_Chaos In The CBD_K Motionz_Todd Edwards_Sally C_4am Kru_sim0ne_Luuk van Dijk_Notion_BassLayerz_Obskur_Morgan Seatree_Conducta_Bakey_Oppidan_Y U QT_Effy_Paige Tomlinson_L.P. Rhythm_A Little Sound_Enzo is Burning_Champion_Faster Horses_Kyle Starkey_Inafekt_Surusinghe_Saint Ludo_Ghoulish_Diffrent_Harriet Jaxxon_Club Angel_Miley Serious_Eksman_IC3_Strategy_Nautica_Gina Breeze_Aletha_SHUFFA_North Base_PACH_Tempza_Carasel_Krysko_Rich Reason_Tonn Piper_Fox (US)_Chunky_Riko Dan_Mark XTC_Leaha_Mix-Stress_Urbi_Nicola Bear_Joe Motion_Yami_Larishka_BUTCHABOI,Heaton Park,Manchester,United Kingdom,"Manchester, United Kingdom","Manchester, United Kingdom",6.269732449999999,-2.2451148,"(53.4794892, -2.2451148)",53.4794892
Bicep,Bilbao BBk LIVE,2025-07-10T00:00:00.000,/events/2070785,Bicep_Orbital_The Blessed Madonna_Polo & Pan,Kobetamendi,North,Spain,"North, Spain",Spain,6.269732449999999,-4.8379791,"(39.3260685, -4.8379791)",39.3260685
Bicep,Flow Festival 2025,2025-08-08T00:00:00.000,/events/2057486,Charli XCX_Khruangbin_Bicep_Autechre_Joy Orbison_Avalon Emerson,Suvilahti Power Plant,Helsinki,Finland,"Helsinki, Finland","Helsinki, Finland",6.269732449999999,24.9427473,"(60.1674881, 24.9427473)",60.1674881
Bicep,"Emerge · Fatboy Slim, Bicep pres. Chroma, Sonny Fodera, Teletech + more",2025-08-23T00:00:00.000,/events/2056596,Fatboy Slim_Bicep_Sonny Fodera_Hannah Laing_I Hate Models_Marlon Hoffstadt_Sara Landry_blk._Sarah Story_sim0ne_Yasmin Gardezi_Azyr_DYEN_Holy Priest_JAZZY (2)_MELTX_SIKOTI_Alex Farell_hotline._Tara Casey,Boucher Road Fields,Belfast,United Kingdom,"Belfast, United Kingdom","Belfast, United Kingdom",6.269732449999999,-5.9301829,"(54.596391, -5.9301829)",54.596391
Black Coffee,Black Coffee Weekender (MAIN EVENT) - Cape Town - 01 March 2025,2025-03-01T00:00:00.000,/events/2096487,Black Coffee_WhoMadeWho_Fka Mash_meera_SONA (2),The Ostrich Farm,Cape Town,South Africa,"Cape Town, South Africa","Cape Town,  Africa",6.269732449999999,18.418521497722594,"(-33.9252902, 18.418521497722594)",-33.9252902
Black Coffee,Black Coffee Weekender (BRUNCH AFTERPARTY) - Cape Town - 02 March 2025,2025-03-02T00:00:00.000,/events/2096492,Black Coffee,Grand Africa Café,Cape Town,South Africa,"Cape Town, South Africa","Cape Town,  Africa",6.269732449999999,18.418521497722594,"(-33.9252902, 18.418521497722594)",-33.9252902
Black Coffee,Black Coffee at District Thursday,2025-03-20T00:00:00.000,/events/2086713,Black Coffee,District Atlanta,Atlanta,United States of America,"Atlanta, United States of America","Atlanta, United States of America",6.269732449999999,-84.3902644,"(33.7489924, -84.3902644)",33.7489924
Black Coffee,"Icons by Pacha with Black Coffee, Parallelle & Fabrice",2025-04-03T00:00:00.000,/events/2082083,Black Coffee_Parallelle,Playa Pacha,Dubai,United Arab Emirates,"Dubai, United Arab Emirates","Dubai, United Arab Emirates",6.269732449999999,55.18853865430702,"(25.074282349999997, 55.18853865430702)",25.074282349999997
Black Coffee,Time Warp Mannheim Germany 2025,2025-04-05T00:00:00.000,/events/2031556,Acid Pauli_Adam Beyer_Adam Ten_Adiel_Quest_Airrica_Amelie Lens_Anfisa Letyago_Ben Klock_Black Coffee_CamelPhat_Carlita_Charlotte de Witte_Clara Cuvé_Daria Kolosova_Héctor Oaks_David Löhlein_Dixon_Chloé Caillet_DJ Heartstring_Enrico Sangiuliano_Franky Rizardo_HAAi_Indira Paganotto_Jamie Jones_Joseph Capriati_KI/KI_Loco Dice_MALUGI_Marco Carola_Mischluft_Pegassi_Nina Kraviz_Pan-Pot_Patrick Mason_Ricardo Villalobos_Richie Hawtin_Sedef Adasï_Seebase_Seth Troxler_Sven Vath_SYREETA,Maimarkthalle,Mannheim,Germany,"Mannheim, Germany","Mannheim, Germany",6.269732449999999,8.4673098,"(49.4892913, 8.4673098)",49.4892913
Black Coffee,Black Coffee in Panama,2025-04-10T00:00:00.000,/events/2105846,Black Coffee,TBA - Megapolis Convention Center,All,Panama,"All, Panama",Panama,6.269732449999999,-81.1308434,"(8.559559, -81.1308434)",8.559559
Black Coffee,Black Coffee en Bogotá,2025-04-11T00:00:00.000,/events/2100727,Black Coffee,TBA - Movistar Arena,Bogotá,Colombia,"Bogotá, Colombia","Bogotá, Colombia",6.269732449999999,-74.0720917,"(4.711011, -74.0720917)",4.711011
Black Coffee,Caprices Festival 2025 - Crans-Montana,2025-04-04T00:00:00.000,/events/2054584,ARODES_Ben UFO_Black Coffee_Thabo (DE)_Cassy_Cesar Merveille_Cincity_Colyn_Dan Ghenacia_East End Dubs_I Hate Models_Jamie Jones_Marco Carola_Mita Gami_Nic Fanciulli_Franky Rizardo_Ogazón_Ryan Elliott_Parfait_PERSIC_Prospa_Rolbac_Samsön_Seth Troxler_Shanti Celeste_Shimza_Sparrow & Barbossa_Vintage Culture_Adriatique_Alci_Gescu_Alex Wann_Baloo_Dr Banana_Melody RA+RE_DVS1_Enzo Siragusa_EVGHENIIA_Fatima Hajji_Gene On Earth_Giorgio Maulini_Guti_Joseph Capriati_Luciano_Mateo Dufour_Mathew Jonson_Miguelle_TONS_Mont Rouge_Nina Kraviz_OMAKS_Paco Osuna_Philippa Pacho_Ricardo Villalobos_Raresh_Rōse (CH)_Rossi_Shlømo_Sonja Moonear_Craig Richards_Traumer,Cry d'Er – Club d'Altitude,All,Switzerland,"All, Switzerland",Switzerland,6.269732449999999,8.2319736,"(46.7985624, 8.2319736)",46.7985624
Black Coffee,ULTRA BUENOS AIRES 2025 [DOUBLE DATE],2025-04-18T00:00:00.000,/events/2094584,Adam Beyer_Afrojack_Anyma_Artbat_Black Coffee_Boris Brejcha_I Hate Models_Martin Garrix_Nico Moreno_Oliver Heldens_Wade_Miss Monique_Black Tiger Sex Machine_Francis Mercier_Korolova_Mariano Mellino_MoBlack_Moritz Hofbauer_Morten_Partiboi69,"TBA - Parque de la Ciudad, Villa Soldati",Buenos Aires,Argentina,"Buenos Aires, Argentina","Buenos Aires, Argentina",6.269732449999999,-58.4440583,"(-34.6083696, -58.4440583)",-34.6083696
Black Coffee,Black Coffee on the Thames,2025-07-31T00:00:00.000,/events/2096120,Black Coffee,Old Royal Naval College,London,United Kingdom,"London, United Kingdom","London, United Kingdom",6.269732449999999,-0.1277653,"(51.5074456, -0.1277653)",51.5074456
Black Coffee,Black Coffee on the Thames,2025-08-01T00:00:00.000,/events/2085340,Black Coffee,Old Royal Naval College,London,United Kingdom,"London, United Kingdom","London, United Kingdom",6.269732449999999,-0.1277653,"(51.5074456, -0.1277653)",51.5074456
Bonobo,Love International 2025,2025-07-09T00:00:00.000,/events/2028303,A For Alpha_AÆE_Adam Shelton_ADRIATIC COASTING_Alex Kassian_Alexis Le-Tan_Ally Tropical_Amaliah_Andee Frost_andreAs_Andrija Mlacovic_Anil (UK)_Antal_Apiento_Armând_Aurora Halal_Axel Boman_Bears In Space_Ben UFO_Bill Brewster_Bobby Beige_Dean Smith_Bobby._Bonobo_Budino_Call Super_CC:DISCO!_CCL_Chaos In The CBD_Chez de Milo_Chris Stoker_Corey Sizemore_Courtney Bailey_Craig Richards_Crazy P_D. Tiffany_Danielle_Dave Harvey_Dave P_Decius_DJ Nature_DJ Sundae_dj_2button_Dr Banana_Ivan Smagghe_Manfredas_Ellie Stokes_EMA (1)_Enrica Falqui_Eric Duncan_Eris Drew_Octo Octa_Fantastic Man_Felix Dickinson_FFAN_Floating Points_Francesco Del Garda_Frank Broughton_Free Zing_Galen_Gee Dee_Gina Breeze_Grenco_Harri Pepper_Hodge_Horse Meat Disco_Hunee_Idjut Boys_Ido Plumes_Il Bosco_Isaac Carter_James Holroyd_Jamie Bull_Jamz Supernova_JDH_Jennifer Loveless_John Talabot_Jordan Nocturne_Julie Wills_Junior_Kasra V_Kickin Pigeon_KT_Leon Vynehall_Lexx_livwutang_Lovefingers_Luca Lozano_Lukas Wigflex_Luke Una_Mad Professor_Marie Davidson_Marie Malarie_Marion Hawkes_Mark Gill_Matt Cowell_Michelle Manetti_Midland_Mimi_Murrin_Neil Diablo_Nicola Cruz_NIKS_Nosedrip_Not An Animal_Objekt_Odopt_Optimo (Espacio)_Or:la_Orpheu The Wizard_Otologic_Palms Trax_PARAMIDA_Paranoid London_Pascal Moscheni_Paula Tape_PBR Streetgang_Pharaoh Brunson_Quest_Radioactive Man_Reptant_Rose Again_Roza Terenzi_Running Hot_Shanti Celeste_Moxie_Saoirse_Peach_Safiye_Sam Bangura_Sarahtonin_Sean Johnston_SHERELLE_Sleep D_Softi_Soichi Terada_Solar_Sound Metaphors Djs_Sven Atterton_Sweely_Tania Just_Thom Parris_Tia Cousins_Tornado Wallace_Vladimir Ivkovic_Warehouse Preservation Society,The Garden Tisno,All,Croatia,"All, Croatia",Croatia,6.269732449999999,15.6575209,"(45.3658443, 15.6575209)",45.3658443
Bonobo,Percolate x On The Beach 2025 - Bonobo presents OUTLIER,2025-07-18T00:00:00.000,/events/2052225,Bonobo,Brighton Beach,Brighton,United Kingdom,"Brighton, United Kingdom","Brighton, United Kingdom",6.269732449999999,-0.1400561,"(50.8214626, -0.1400561)",50.8214626
Boston Bun,LOST IN THE GROOVE - Cerrone / Boston Bun / Barbara Boeing,2025-02-22T00:00:00.000,/events/2086857,Cerrone_Boston Bun_Barbara Boeing,Le Transbordeur,Lyon,France,"Lyon, France","Lyon, France",6.269732449999999,4.8320114,"(45.7578137, 4.8320114)",45.7578137
Boston Bun,"Boston Bun (live) + Lycoriscoris en microdosis - La Nau, Barcelona",2025-04-23T00:00:00.000,/events/2078580,Boston Bun,La Nau,Barcelona,Spain,"Barcelona, Spain","Barcelona, Spain",6.269732449999999,2.1774322,"(41.3828939, 2.1774322)",41.3828939
Boston Bun,"Boston Bun (live) + Lycoriscoris en microdosis - Sala Villanos, Madrid",2025-04-24T00:00:00.000,/events/2077124,Boston Bun,Sala Villanos,Madrid,Spain,"Madrid, Spain","Madrid, Spain",6.269732449999999,-3.7035825,"(40.4167047, -3.7035825)",40.4167047
Boston Bun,Cassius Club,2025-07-12T00:00:00.000,/events/2067160,RONI_Boston Bun_Marina Trench_Olympe4000_Dylan Dylan_Bernadette_Tatyana Jane_Simo Cell,La Sirene,West,France,"West, France",France,6.269732449999999,1.8883335,"(46.603354, 1.8883335)",46.603354
Charlotte de Witte,Charlotte de Witte at Meydan Grandstand,2025-02-22T00:00:00.000,/events/2080294,Charlotte de Witte,Soho Garden DXB,Dubai,United Arab Emirates,"Dubai, United Arab Emirates","Dubai, United Arab Emirates",6.269732449999999,55.18853865430702,"(25.074282349999997, 55.18853865430702)",25.074282349999997
Charlotte de Witte,"Charlotte de Witte & MORE ARTISTS - by HYPNOSE, MONTEVIDEO",2025-03-23T00:00:00.000,/events/2083538,Charlotte de Witte,TBA - Parque Batlle,Montevideo,Uruguay,"Montevideo, Uruguay","Montevideo, Uruguay",6.269732449999999,-56.1913095,"(-34.9058916, -56.1913095)",-34.9058916
Charlotte de Witte,Ultra Music Festival 2025,2025-03-28T00:00:00.000,/events/2034748,Armin van Buuren_Carl Cox_Dom Dolla_John Summit_Zedd_Nero_Charlotte de Witte_Four Tet_Miss Monique_Mau P_Eli Brown_Artbat_Afrojack_Hardwell_Martin Garrix,Bayfront Park,Miami,United States of America,"Miami, United States of America","Miami, United States of America",6.269732449999999,-80.19362,"(25.7741728, -80.19362)",25.7741728
Charlotte de Witte,Time Warp Mannheim Germany 2025,2025-04-05T00:00:00.000,/events/2031556,Acid Pauli_Adam Beyer_Adam Ten_Adiel_Quest_Airrica_Amelie Lens_Anfisa Letyago_Ben Klock_Black Coffee_CamelPhat_Carlita_Charlotte de Witte_Clara Cuvé_Daria Kolosova_Héctor Oaks_David Löhlein_Dixon_Chloé Caillet_DJ Heartstring_Enrico Sangiuliano_Franky Rizardo_HAAi_Indira Paganotto_Jamie Jones_Joseph Capriati_KI/KI_Loco Dice_MALUGI_Marco Carola_Mischluft_Pegassi_Nina Kraviz_Pan-Pot_Patrick Mason_Ricardo Villalobos_Richie Hawtin_Sedef Adasï_Seebase_Seth Troxler_Sven Vath_SYREETA,Maimarkthalle,Mannheim,Germany,"Mannheim, Germany","Mannheim, Germany",6.269732449999999,8.4673098,"(49.4892913, 8.4673098)",49.4892913
Charlotte de Witte,Movement Festival 2025,2025-05-24T00:00:00.000,/events/2101035,ADMN_A K_Anfisa Letyago_Annicka_Ashton Swinton_Augustus Williams_Avalon Emerson_BeatLoaf_BEIGE_Ben UFO_Blackmoonchild_The Blessed Madonna_Boys Noize_Brian Kage_Carl Cox_Carl Craig_Moodymann_Mike Banks_Chaos In The CBD_Charlotte de Witte_Chase & Status_Chris Liebing_Chuck Daniels_Claude VonStroke_Cobblestone Jazz_Craig Gonzalez_D.Dan_DeepChord_Dennis Ferrer_Disc Jockey George_DJ Cent_DJ Gigola_DJ Godfather_DJ Holographic_DJ I.V._DJ Minx_DJ Nobu_DJ Seinfeld_DJ Seoul (Direct Drive)_DJ SPHiNX_DJ Tennis_Chloé Caillet_Donavan Glover_Dubfire_Ela Minus_Erika_Father Dukes_FJAAK_Fullbodydurag_Gay Marvine_Goldie_Photek_HAAi_Hamdi_Helena Hauff_Henry Brooks_Hiroko Yamamura_HiTech_horsegiirL_Huey Mnemonic_Jamie xx_Jem (1)_JMT (2)_John Summit_Jon Dixon_Joris Voorn_Joseph Capriati_Junior Sanchez_Keith Worthy_Kevin Reynolds_Kevin Saunderson_The Saunderson Brothers_KlangKuenstler_Layton Giordani_Loco Dice_Vintage Culture_Loren_Marcel Dettmann_Mark Broom_Mau P_MCR-T_Mike Schommer_Mike Servito_Mister Joshooa_Nina Kraviz_Norm Talley_Octave One_Patrick Topping_Peter Croce_Prospa_RAEDY LEX_Ricardo Villalobos_Rimarkable_Riva Starr_Salar Ansari_salute_Sammy Virji_Sara Landry_Seth Troxler_Shawescape Renegade_Shawn Rudiman_Shimza_sillygirlcarmen_Sonny Fodera_Soul Clap_Stacey Hotwaxx Hale_Stacey Pullen_TSHA_Waajeed_LADYMONIX_Walker & Royce,Hart Plaza,Detroit,United States of America,"Detroit, United States of America","Detroit, United States of America",6.269732449999999,-83.0466403,"(42.3315509, -83.0466403)",42.3315509
Charlotte de Witte,909 Festival 2025,2025-06-07T00:00:00.000,/events/2064720,Adam Beyer_angelboy_Bart Skils_Bastienne_STERAC_Ben Klock_Carl Craig_Mike Banks_Carmen Lisa (2)_Chaos In The CBD_Charlotte de Witte_Chlär_Daria Kolosova_Dax J_Deep Dish_Dimitri (1)_Dissolver_DJ Holographic_Essy_Estella Boersma_Héctor Oaks_Jennifer Cardini_Kaap_Kerri Chandler_KiNK_Kirollus_Kyle Starkey_Kyra Khaldi_Laura Meester_Locus Error_Lola Edo_Lucky Done Gone_Tsepo_Luna Ludmila_Milio_Moody Mehran_Nina Kraviz_Pan-Pot_Robert Hood_Ryan Elliott_SAIDAH_Sama' Abdulhadi_Sandrien_Secret Cinema_TITIA_Vince Watson_Young Marco,Amsterdamse Bos,Amsterdam,Netherlands,"Amsterdam, Netherlands","Amsterdam, Netherlands",6.269732449999999,4.8924534,"(52.3730796, 4.8924534)",52.3730796
Charlotte de Witte,Greenfields Open Air Festival 2024,2025-07-05T00:00:00.000,/events/2058512,Charlotte de Witte,Galopprennbahn,Munich,Germany,"Munich, Germany","Munich, Germany",6.269732449999999,11.5753822,"(48.1371079, 11.5753822)",48.1371079
Charlotte de Witte,Kappa FuturFestival 2025,2025-07-04T00:00:00.000,/events/2065538,Adam Beyer_Maceo Plex_Airod_ANXHELA_Alignment_Anyma_Artbat_Azyr_Binh_Caribou_Carl Cox_Charlotte de Witte_Cloudy_NOVAH_Dixon_DJ Hell_DJ Stingray 313_Helena Hauff_Donato Dozzy_Fleur Shore_Francesco Del Garda_Ben UFO_Joe Claussell_Ron Trent_Kevin de Vries_Miss Monique_Nico Moreno_Nina Kraviz_Ogazón_Ryan Elliott_Paco Osuna_Quest_Adiel_Reinier Zonneveld_Seth Troxler_Shlømo_Skream_Prospa_Tini Gessler_Vintage Culture_YOUniverse_Adrian Mills_BIIA_ANOTR_Bárbara Lago_Daniella da Silva_Basswell_Boris Brejcha_CCL_Chris Liebing_Christopher Coe_Diplo_Elli Acula_FJAAK_Enrico Sangiuliano_Eris Drew_Octo Octa_Fatima Koanda_Franky Wah_Mita Gami_Gandalf_Gene On Earth_Dyed Soundorom_Inner Lakes_Joseph Capriati_Lil' Louis_Marie Montexier_Simone de Kunovich_Mau P_Meduza_Nicola Gavino_O.BEE_Tomas Station_Octave One_Olympe_Peggy Gou_DJ Tennis_sizing_Solomun_The Exaltics_Voices From The Lake_Bad Boombox_Chris Avantgarde_Colin Benders_Dennis Cruz_The Martinez Brothers_Dexphase_Skryption_Dom Dolla_DVS1_Traxx_East End Dubs_Fiorella_Floating Points_Folamour_Jane Fitz_Kerri Chandler_KETTAMA_Lilly Palmer_Massano_Mathew Jonson_Nicola Mazzetti_Nicole Lovera_OGUZ_ØTTA_Patrick Mason_PAWSA_Sally C_Sneaker_Speedy J_Surgeon_Tatyana Jane_The Lady Machine_.VRIL_19:26,Parco Dora,Turin,Italy,"Turin, Italy","Turin, Italy",6.269732449999999,7.6824892,"(45.0677551, 7.6824892)",45.0677551
Charlotte de Witte,Audioriver Festival 2025,2025-07-11T00:00:00.000,/events/2039986,4am Kru_Adriatique_Âme_Sama' Abdulhadi_Ben Böhmer_Charlotte de Witte_DESIREE (RSA)_Dixon_Dyzen_sideral_Jayda G_Jimi Jules_Julya Karma_KI/KI_Miura_P Money_Sara Landry_Skrimor,Błonia Łódzkie,All,Poland,"All, Poland",Poland,6.269732449999999,19.134422,"(52.215933, 19.134422)",52.215933
Charlotte de Witte,AWAKENINGS FESTIVAL 2025,2025-07-11T00:00:00.000,/events/1963535,6EJOU_999999999_Adam Beyer_Adriatique_Alan Fitzpatrick_Alex Wann_Âme_AnD_Andres Campo_Anfisa Letyago_Azyr_Bart Skils_Ben Böhmer_Ben Klock_Benwal_BLONDEX_Bullzeye_Secret Cinema_Carl Cox_Carlita_Carmen Lisa (2)_Charlotte de Witte_Chris Stussy_Cincity_Clara Cuvé_Damian Lazarus_Daria Kolosova_Delano Legito_DIØN_Dixon_Jimi Jules_DJ Gigola_DJ Nobu_DJ Rush_Eli Brown_Ellen Allien_Elli Acula_Emvae_Enrico Sangiuliano_Estella Boersma_Fatima Hajji_FJAAK_Freddy K_Funk Assault_Funk Tribu_Hot Since 82_Prunk_Hyperaktivist_I Hate Models_Indira Paganotto_Innellea_Inox Traxx_Jamie Jones_Joseph Capriati_Joëlla Jackson_Joris Voorn_Josh Baker_Rossi_Joyhauser_Kasia (OFC)_KETTAMA_Kevin de Vries_Kobosil_LAMMER_LB aka LABAT_Len Faki_Locus Error_Lucky Done Gone_Luuk van Dijk_M-High_Marco Carola_MARRØN_Mau P_Mha iri_Milo Spykers_Mind Against_Miss Monique_Nina Kraviz_Noise Mafia_NOVAH_ØTTA_Pan-Pot_Pegassi_Popof_Space 92_Recondite_Reinier Zonneveld_Richie Hawtin_Rødhåd_Sara Landry_Setaoc Mass_Shimza_The Lady Machine_The Martinez Brothers_TWIENA_Vera Grace_Vintage Culture_VNTM_VTSS_X CLUB._Yulia Niko,Beekse Bergen,All,Netherlands,"All, Netherlands",Netherlands,6.269732449999999,5.6343227,"(52.2434979, 5.6343227)",52.2434979
Charlotte de Witte,Dour Festival 2025,2025-07-16T00:00:00.000,/events/2056426,Charlotte de Witte_Folamour_Brutalismus 3000_Marlon Hoffstadt_Adriatique_Bru C_Caspa_Rusko_Skream_Benga_Nico Moreno_Azyr_Sara Landry_Pendulum_ascendant vierge_Marc Rebillet_¥ØU$UK€ ¥UK1MAT$U_KI/KI,Dour Festival,All,Belgium,"All, Belgium",Belgium,6.269732449999999,4.6667145,"(50.6402809, 4.6667145)",50.6402809
Charlotte de Witte,Junction 2,2025-07-25T00:00:00.000,/events/2060362,Adam Beyer_ANNA_Azzecca_Carina Lawrence_Ceri_Chris Avantgarde_DJ Seinfeld_Prospa_Hardt Antoine_Kitty Amor_Layla Benitez_O'Flynn_Parra for Cuva_Philou Louzolo_DJ Tennis_Ashee_WhoMadeWho_999999999_Amber Broos_Andres Campo_Charlotte de Witte_Daria Kolosova_Dr. Rubinstein_Dax J_Helena Hauff_DVS1_Héctor Oaks_Patrick Mason_Kessie_KETTAMA_Reinier Zonneveld_Nina Kraviz_X CLUB._X-Coast_BASHKKA_D. Tiffany_Job Jobse_Joseph Capriati_Kolter_Kyle Starkey_Maara_Mount Kimbie_Moxie_Ogazón_Palms Trax_Ryan Elliott_Sofia Kourtesis_Soulwax_Theo Kottis,Boston Manor Park,London,United Kingdom,"London, United Kingdom","London, United Kingdom",6.269732449999999,-0.1277653,"(51.5074456, -0.1277653)",51.5074456
Charlotte de Witte,NEOPOP Festival 2025,2025-08-07T00:00:00.000,/events/2014377,Aurora Halal_Ben Klock_BIIA_Charlotte de Witte_Colin Benders_Lady Starlight_STERAC_Dax J_Goldie_Joseph Capriati_Freddy K_Lake Haze_Lewis Fautzi_The Advent_MARRØN_Nina Kraviz_Salbany_Zengxrl,Forte Santiago da Barra,All,Portugal,"All, Portugal",Portugal,6.269732449999999,-8.1353519,"(39.6621648, -8.1353519)",39.6621648
Charlotte de Witte,Touquet Music Beach Festival 2025,2025-08-22T00:00:00.000,/events/2088057,Charlotte de Witte_Eric Prydz_Fatboy Slim_Mochakk_Hugel_Adriatique_Kungs_KI/KI_Vladimir Cauchemar_Odymel_LP Giobbi_Mont Rouge,Le Touquet-Paris-Plage,North,France,"North, France",France,6.269732449999999,1.8883335,"(46.603354, 1.8883335)",46.603354
Claptone,Claptone LIVE AT BOTOXE ATHENS,2025-02-22T00:00:00.000,/events/2094780,Claptone_DJ Freespirit,BÒTOXE Club Athens,Athens,Greece,"Athens, Greece","Athens, Greece",6.269732449999999,23.7348324,"(37.9755648, 23.7348324)",37.9755648
Claptone,CRSSD Festival Spring '25,2025-03-01T00:00:00.000,/events/2040316,Fisher (OZ)_Justice_Chris Lorenzo_Claptone_Folamour_Jungle (UK)_Kavinsky_Maceo Plex_SG Lewis_Artbat_Nicole Moudaber_Anfisa Letyago_Sasha_John Digweed_1tbsp_Ben UFO_Bon Entendeur_Busy P_Alan Braxe_DJ F16 Falcon_Cassius_Cinthie_DJ EZ_EMBRZ (IE)_Fleur Shore_Flight Facilities_Franck_Hannah Laing_Hayden James_Innellea_Jasper Tygner_Klangphonics_LB aka LABAT_LP Giobbi_Marsh_Monolink_Notre Dame_Poolside_Rene Wise_Rødhåd_Riordan_Sam Divine_Schak_SOSA UK_Special Request_Tommy Holohan_8KAYS_A-Trak_François X_Linska_Melé_O'Flynn_Villager,Waterfront Park in San Diego,San Diego,United States of America,"San Diego, United States of America","San Diego, United States of America",6.269732449999999,-117.162772,"(32.7174202, -117.162772)",32.7174202
Claptone,SPACE THE 360 w/ Claptone  Jungle DJ SET  Patrick Topping  Sonny Fodera,2025-03-08T00:00:00.000,/events/2062122,Claptone_Jungle (UK)_Patrick Topping_Sonny Fodera,La Cubierta de Leganés,Madrid,Spain,"Madrid, Spain","Madrid, Spain",6.269732449999999,-3.7035825,"(40.4167047, -3.7035825)",40.4167047
Claptone,"Claptone, Tini Gessler, Pretty Pink, Merissa Mahilaa",2025-05-03T00:00:00.000,/events/2106809,Claptone_Tini Gessler_Pretty Pink_Merissa Mahilaa,Hafen 49,Mannheim,Germany,"Mannheim, Germany","Mannheim, Germany",6.269732449999999,8.4673098,"(49.4892913, 8.4673098)",49.4892913
Diffrent,Boiler Room - Hard Dance: Heidelberg,2025-02-22T00:00:00.000,/events/2052718,Juicy Romance_Mischluft_sim0ne_Justin Jay_Janis Zielinski_Diffrent_Silva Bumpa (2)_Soul Mass Transit System_Sophia Violet_DAISY_ESC (5),halle02,Heidelberg,Germany,"Heidelberg, Germany","Heidelberg, Germany",6.269732449999999,8.694724,"(49.4093582, 8.694724)",49.4093582
Diffrent,Pitch Music & Arts - 2025,2025-03-07T00:00:00.000,/events/2046332,2ManyDJs_6 SENSE_999999999_Anetha_Audrey Danza_BADSISTA_Baraka_BASHKKA_D. Tiffany_Daria Kolosova_SPFDJ_Dax J_Diffrent_DJ Fuckoff_DJ Gigola_DJ Paulette_DJ PGZ_Moopie_Ed Kent_Ela Minus_Elli Acula_Fadi Mohem_FJAAK_Funk Assault_Funk Tribu_Gabber Eleganza_GiGi FM_Guy Contact_Honey Dijon_ISAbella_Jennifer Loveless_Job Jobse_Joy Orbison_Kasper Marott_Kia (AU)_Lacchesi_Lady Shaka_Leo Pol_Maara_Mabel_Maruwa_Mia Koden_Midland_Mikalah Watego_Miley Serious_Naycab_Ned Bennett_Objekt_Ogazón_Ollie Lishman_Osmosis Jones_Pablo Bozzi_Pegassi_Shanti Celeste_southstar_Stev Zar_Sugar Free_Surf 2 Glory_Taylah Elaine_The Illustrious Blacks_Trym_Volvox_Y U QT,Moyston,Melbourne,Australia,"Melbourne, Australia","Melbourne, Australia",6.269732449999999,144.9631732,"(-37.8142454, 144.9631732)",-37.8142454
Diffrent,"Funk Tribu , NOVAH , Parfait and many more",2025-03-15T00:00:00.000,/events/2096294,Diffrent_Funk Tribu_NOVAH_Parfait,Gotec,Karlsruhe,Germany,"Karlsruhe, Germany","Karlsruhe, Germany",6.269732449999999,8.4034195,"(49.0068705, 8.4034195)",49.0068705
Diffrent,"Faster Horses [b2b All Night Long] ft. Benwal, Diffrent, EMILIJA + MORE",2025-03-21T00:00:00.000,/events/2082159,Faster Horses_Auramatic_Benwal_Diffrent_EMILIJA_Leaha_Mika Heggemann,The Cause,London,United Kingdom,"London, United Kingdom","London, United Kingdom",6.269732449999999,-0.1277653,"(51.5074456, -0.1277653)",51.5074456
Diffrent,23 MRT - Thuishaven with Diffrent 5HRS / Oppidan / Rozie,2025-03-23T00:00:00.000,/events/2072545,Diffrent_Oppidan_Rozie_SAIDAH_Emvae_Trancemaster Krause_KIM SWIM_Inafekt,Thuishaven,Amsterdam,Netherlands,"Amsterdam, Netherlands","Amsterdam, Netherlands",6.269732449999999,4.8924534,"(52.3730796, 4.8924534)",52.3730796
Diffrent,Rotterdam Rave 'Spring Special' 2025,2025-03-29T00:00:00.000,/events/2077833,6EJOU_Adrian Mills_Cloudy_Afem Syko_Cynthia Spiering_Diffrent_DJ Hyperdrive_DURDENHAUER_Fenrick_future.666_ÜBERKIKZ_KARAH_KLOFAMA_KUKO_Vendex_LAMMER_NOVAH_Pegassi_Winson,Maassilo,Rotterdam,Netherlands,"Rotterdam, Netherlands","Rotterdam, Netherlands",6.269732449999999,4.47775,"(51.9244424, 4.47775)",51.9244424
Diffrent,HOTLINE presents Diffrent / Cleopard2000 / Spacer Woman / Oniver,2025-04-18T00:00:00.000,/events/2107421,Diffrent_Cleopard2000_Spacer Woman,Complex Maastricht,All,Netherlands,"All, Netherlands",Netherlands,6.269732449999999,5.6343227,"(52.2434979, 5.6343227)",52.2434979
Diffrent,Zonnewende Festival 2025,2025-04-19T00:00:00.000,/events/2072644,22 Interns_Alycia Bezgo_BAVR_Diffrent_DJ Europarking_Eva Vrijdag_Helena Lauwaert_Kenny Montana_kneiz_Geheimzinnig Soundsystem_Kyle Starkey_Miamor_Barqiemoon_NewTone_Stanislawa_Tjade,Antwerp Expo,Antwerp,Belgium,"Antwerp, Belgium","Antwerp, Belgium",6.269732449999999,4.3997081,"(51.2211097, 4.3997081)",51.2211097
Diffrent,Oranjebloesem Festival 2025,2025-04-26T00:00:00.000,/events/2058515,Anfisa Letyago_Benwal_Eva Vrijdag_KETTAMA_Tjade_Maruwa_Young Marco_Benny Rodrigues_De Sluwe Vos_Kolter_Marsolo_Morgan_Hannecart_Prunk_Luuk van Dijk_Samuel Deep_Julian Anthony_Cynthia Spiering_DIØN_Lena_Shlømo_SNTS_Vendex_Bad Boombox_Diffrent_Kyle Starkey_Rozie_LAMMER_MCR-T_SAIDAH_Emma Champagne Queen_Foxy Fahrenheit_Slimfit,Olympisch Stadion,Amsterdam,Netherlands,"Amsterdam, Netherlands","Amsterdam, Netherlands",6.269732449999999,4.8924534,"(52.3730796, 4.8924534)",52.3730796
Diffrent,Oranjebitter Festival,2025-04-26T00:00:00.000,/events/2050063,SAIDAH_Aldonna_MALUGI_Diffrent_KETTAMA_Daria Kolosova_Kyle Starkey_THC_Young Marco_Tjade_DAF_Joëlla Jackson_Rayzir,Roel Langerakpark,Rotterdam,Netherlands,"Rotterdam, Netherlands","Rotterdam, Netherlands",6.269732449999999,4.47775,"(51.9244424, 4.47775)",51.9244424
Diffrent,Mint Festival 2025,2025-05-03T00:00:00.000,/events/2066490,Aletha_Alexandria_Annie Errez_Benwal_Danny Bond_Diffrent_East End Dubs_Enzo Siragusa_Franky Rizardo_Interplanetary Criminal_Josh Baker_Kolter_Kyle Starkey_Locklead_Luke Dean__Mall Grab_Max Dean_Marsolo_Morgan Seatree_Oden_Fatzo_Or:la_Paige Tomlinson_Sally C_Seth Troxler_Silva Bumpa (2)_Soul Mass Transit System_Sweely_Traumer_Obskur_Gaskin_L.P. Rhythm,Newsam Green Farm,Leeds,United Kingdom,"Leeds, United Kingdom","Leeds, United Kingdom",6.269732449999999,-1.5437941,"(53.7974185, -1.5437941)",53.7974185
Diffrent,Diffrent / BAVR,2025-05-10T00:00:00.000,/events/2105783,Diffrent_BAVR,Mondo,Madrid,Spain,"Madrid, Spain","Madrid, Spain",6.269732449999999,-3.7035825,"(40.4167047, -3.7035825)",40.4167047
Diffrent,REACTŌR - Kernkraftwerk Kalkar,2025-05-16T00:00:00.000,/events/2093247,Amilli_ALIS._Boris Coelman_Benny Rodrigues_Cara Elizabeth_Cleopard2000_CÖLN_RYX (1)_DART_David Vunk_davyboi_De Sluwe Vos_DIØN_Diffrent_DJ ASS TITS_Doppelgang_Louve_Festimi Soundsystem_Justin Tinderdate_EloTrance_KIM SWIM_Krackk_Robin Tasi_Kyle Starkey_Kyra Khaldi_LAMMER_Lucky Done Gone_Pegassi_PHIA_PRADA 2000_Prossowski_Rosilicious_Ross From Friends_Shrff_JVNDRS (2)_SNTS_Supergloss_SUPERSTRINGS_t e s t p r e s s_Trancemaster Krause_Vagabund,Kernkraftwerk Kalkar,North Rhine-Westphalia,Germany,"North Rhine-Westphalia, Germany","Rhine-Westphalia, Germany",6.269732449999999,7.5543751,"(51.4789205, 7.5543751)",51.4789205
Diffrent,UPCLOSE 2025,2025-05-17T00:00:00.000,/events/1932477,999999999_Adiel_Ogazón_Akua_Mac Declos_Alarico_Anetha_Patrick Mason_ANNĒ_SHDW_Bae Blade_Ben Klock_Ignez_Benny Rodrigues_Benwal_Janis Zielinski_Beste Hira_Yanamaste_BIIA_Blasha & Allatt_Tasha_Carlos Valdes_Cassy_Charlie Sparks_Chris Stussy_Sally C_Cloudy_CLTX_Cristian Varela_Marco Bailey_Cybersex_Cynthia Spiering_Diffrent_DJ EZ_DJ Fuckoff_DJ Rush_Donato Dozzy_Jane Fitz_Emvae_Fafi Abdel Nour_Fireground_Force Reaction_François X_Grace Dahl_fumi (DE)_Genex_Holden Federico_Ineffekt_Moody Mehran_Isaiah (NL)_Vromo_JakoJako_Philippa Pacho_Jeff Mills_KETCH_KI/KI_Kobosil_Lobster (NL)_Loek Frey_Shoal_Luigi Tozzi_Marcal_Yant_MARRØN_Rødhåd_Natalie Robinson_Nelly_Obscure Shape_Olivia Mendez_ORBE_Psyk_Oscar Mulero_Red Rooms_Rrose_Surgeon_SNTS_SPFDJ_Stef Mendesidis_stranger (NL)_Truncate_Talismann_Temudo_Traumer_ÜBERKIKZ_Zisko,Spaarnwoude (Deelplan Houtrak),Amsterdam,Netherlands,"Amsterdam, Netherlands","Amsterdam, Netherlands",6.269732449999999,4.8924534,"(52.3730796, 4.8924534)",52.3730796
Diffrent,Extrema Outdoor Belgium 2025,2025-06-06T00:00:00.000,/events/2072755,6EJOU_999999999_Aaron Hibell_Afem Syko_ALT8_Samm_Amber Broos_Andres Campo_Apollonia_ARODES_Axel Haube_Azyr_Bae Blade_Ben Böhmer_Benwal_Bora Uzer_Brina Knauss_BYØRN_Calussa_Chelina Manuhutu_Dexphase_Diffrent_DJ BORING_MrD_DJ Fuckoff_DJ Gigola_DJ Heartstring_DJEFF_Eli Brown_EMILIJA_Enrico Sangiuliano_Eric Prydz_Franky Rizardo_Funk Tribu_Gray Cosmo_Hannah Laing_Helena Lauwaert_HU_Hugel_Indira Paganotto_JAMIIE_Jan Blomqvist_Job Jobse_Joyhauser_Juliet Fox_Kamafaka_KARAH_Karim Soliman_KI/KI_Layla Benitez_LE YORA_Lilly Palmer_Lolu Menayed_Mad Dog_Mahmut Orhan_Marcel Fengler_MATRAKK_Maxim Lany_MCR-T_meera (NO)_Melanie Ribbe_Mika Heggemann_Milo Spykers_Mind Against_Miss Monique_MRAK_Nico Morano_Nico Moreno_NOVAH_OGUZ_Paco Osuna_Parkerstrange_Partiboi69_Philou Louzolo_Prospa_Prunk_Romina Mazzini_SALOME_Seth Troxler_Shimza_SONA (2)_Soraya_Space 92_Sparrow & Barbossa_SPFDJ_STEYA_SYREETA_The Element_Themba_Vintage Culture_Winson_Young Marco_Yulia Niko_Zamna Soundsystem_ØTTA_Azra Tekuma_Maharti_BDC (Aus)_Boatman_Calao_Christophe_Dauw_EMJIE_ESIN BOZ_Flieder_Herton_Jane Muss_Jasper Fioole_Kapibara_Kirsti_Lexx_Luna (1)_Marhu_Miamor_MOKER_Neon_Oulad Omar_Paige_Romy Janssen_Stefan Meser_Swart_Tijn Driessen,Kelchterhoef,All,Belgium,"All, Belgium",Belgium,6.269732449999999,4.6667145,"(50.6402809, 4.6667145)",50.6402809
Diffrent,"Parklife 2025, 14th - 15th June",2025-06-14T00:00:00.000,/events/2092487,Charli XCX_Peggy Gou_PAWSA_Bicep_Overmono_Confidence Man_Hybrid Minds_Rudimental_Chris Stussy_Marc Rebillet_Steve Angello_Ewan McVicar_Mochakk_Skream_Benga_Hedex_Bou (UK)_Andy C_Armand Van Helden_Josh Baker_KI/KI_DJ Heartstring_Joy Orbison_Interplanetary Criminal_Girls Don't Sync_Mau P_salute_Max Dean_Rossi_Partiboi69_MALUGI_Prospa_Sam Divine_Chloé Caillet_DJ Gigola_Alex Farell_D.O.D._Paul Woolford_Fish56Octagon_Mella Dee_Chaos In The CBD_K Motionz_Todd Edwards_Sally C_4am Kru_sim0ne_Luuk van Dijk_Notion_BassLayerz_Obskur_Morgan Seatree_Conducta_Bakey_Oppidan_Y U QT_Effy_Paige Tomlinson_L.P. Rhythm_A Little Sound_Enzo is Burning_Champion_Faster Horses_Kyle Starkey_Inafekt_Surusinghe_Saint Ludo_Ghoulish_Diffrent_Harriet Jaxxon_Club Angel_Miley Serious_Eksman_IC3_Strategy_Nautica_Gina Breeze_Aletha_SHUFFA_North Base_PACH_Tempza_Carasel_Krysko_Rich Reason_Tonn Piper_Fox (US)_Chunky_Riko Dan_Mark XTC_Leaha_Mix-Stress_Urbi_Nicola Bear_Joe Motion_Yami_Larishka_BUTCHABOI,Heaton Park,Manchester,United Kingdom,"Manchester, United Kingdom","Manchester, United Kingdom",6.269732449999999,-2.2451148,"(53.4794892, -2.2451148)",53.4794892
Diffrent,HIVE Festival 2025,2025-06-20T00:00:00.000,/events/2037351,6EJOU_A.N.I._Adiel_Adrian Mills_Adriana Lopez_Afem Syko_Alignment_AMBAM_Anetha_Angerfist_Answer Code Request_Soraya_Astrix_AVALON_Bad Boombox_Mischluft_Basswell_Ben Klock_Bloodlust_Bollmann_BYØRN_Captain Hook_CARAVEL_CARV_Cera Khin_Charlie Sparks_Chlär_Chris Liebing_Cleopard2000_Mika Heggemann_Cloudy_David Löhlein_Dax J_DETEST_Diffrent_DJ Fuckoff_Doruksen_Dual Damage_Fantasm_Fenrick_Funk Tribu_future.666_Hades_Holy Priest_HU_I Hate Models_IGDA_Indira Paganotto_Infected Mushroom_JAZZY (2)_Kalte Liebe_KARAH_KI/KI_Kø:lab_Kobosil_Krypton_KUKO_Lee Ann Roberts_Levt_Maiko_MALUGI_Matrixxman_Miss Bashful_DBBD_Nico Moreno_Nicolas Julian_Nikolina_NOTMYTYPE (2)_NOVAH_Nusha_O.B.I. (DE)_Odymel_Ollie Lishman_Janis Zielinski_OMAKS_Oscar Mulero_ØTTA_Paraçek_Parrish Smith_Patrick Mason_Pawlowski (UK)_Pegassi_Phase Fatale_PRADA 2000_Part Time Killer_Raxeller_RIKHTER_Schrotthagen_Setaoc Mass_Shlømo_SHOKI287_CLTX_SIKOTI_Somewhen_SPFDJ_Stef Mendesidis_Stephanie Sykes_Tau Ceti_Tommy Four Seven_Trancemaster Krause_Frederic._Tristan (2)_Upper90_Val Vashar_VIDO_VTSS_WILDERÍCH_zwilling._Serafina_Zeltak,Ferropolis,Leipzig,Germany,"Leipzig, Germany","Leipzig, Germany",6.269732449999999,12.3747329,"(51.3406321, 12.3747329)",51.3406321
Diffrent,Rotterdam Rave Festival 2025,2025-08-30T00:00:00.000,/events/2077838,Adrian Mills_KUKO_Alignment_Azyr_Basswell_Cloudy_NOVAH_Cybersex_Cynthia Spiering_LAMMER_Diffrent_DYEN_Fenrick_Odymel_FUMI_Serafina_future.666_I Hate Models_KARAH_KLOFAMA_Nico Moreno_Winson,Ahoy Rotterdam,Rotterdam,Netherlands,"Rotterdam, Netherlands","Rotterdam, Netherlands",6.269732449999999,4.47775,"(51.9244424, 4.47775)",51.9244424
Diffrent,Onder De Radar Festival 2025,2025-08-29T00:00:00.000,/events/2104248,999999999_Benwal_BIIA_Dee Diggs_Diffrent_DJ Heartstring_Elias Mazian_Hadone_JASSS_livwutang_Luuk van Dijk_M-High_Mall Grab_Moxes_Oscar Mulero_Partiboi69_Pegassi_Remma_Leen (NL)_Sammy Virji_SAIDAH_Tjade_Winson_ZEUZ,Vliegbasis Twenthe,All,Netherlands,"All, Netherlands",Netherlands,6.269732449999999,5.6343227,"(52.2434979, 5.6343227)",52.2434979
DJ Gigola,Freeform: Funk Assault & DJ Gigola,2025-03-08T00:00:00.000,/events/2092799,Funk Assault_DJ Gigola_Half Cut,Manning Bar,Sydney,Australia,"Sydney, Australia","Sydney, Australia",6.269732449999999,151.2082848,"(-33.8698439, 151.2082848)",-33.8698439
DJ Gigola,Pitch Music & Arts - 2025,2025-03-07T00:00:00.000,/events/2046332,2ManyDJs_6 SENSE_999999999_Anetha_Audrey Danza_BADSISTA_Baraka_BASHKKA_D. Tiffany_Daria Kolosova_SPFDJ_Dax J_Diffrent_DJ Fuckoff_DJ Gigola_DJ Paulette_DJ PGZ_Moopie_Ed Kent_Ela Minus_Elli Acula_Fadi Mohem_FJAAK_Funk Assault_Funk Tribu_Gabber Eleganza_GiGi FM_Guy Contact_Honey Dijon_ISAbella_Jennifer Loveless_Job Jobse_Joy Orbison_Kasper Marott_Kia (AU)_Lacchesi_Lady Shaka_Leo Pol_Maara_Mabel_Maruwa_Mia Koden_Midland_Mikalah Watego_Miley Serious_Naycab_Ned Bennett_Objekt_Ogazón_Ollie Lishman_Osmosis Jones_Pablo Bozzi_Pegassi_Shanti Celeste_southstar_Stev Zar_Sugar Free_Surf 2 Glory_Taylah Elaine_The Illustrious Blacks_Trym_Volvox_Y U QT,Moyston,Melbourne,Australia,"Melbourne, Australia","Melbourne, Australia",6.269732449999999,144.9631732,"(-37.8142454, 144.9631732)",-37.8142454
DJ Gigola,DJ Gigola presents: Bigroom Sensual ,2025-03-14T00:00:00.000,/events/2081635,DJ Gigola_X-Coast,Fvtvr,Paris,France,"Paris, France","Paris, France",6.269732449999999,2.3200410217200766,"(48.8588897, 2.3200410217200766)",48.8588897
DJ Gigola,Fuse presents: DJ Gigola curates with Dj Babatr & TWIENA,2025-03-15T00:00:00.000,/events/2101317,DJ Gigola_Dj Babatr_Danny Wabbit_Perra Inmunda_TWIENA_Stanislawa_Malo Z,Fuse,Brussels,Belgium,"Brussels, Belgium","Brussels, Belgium",6.269732449999999,4.351697,"(50.8465573, 4.351697)",50.8465573
DJ Gigola,DJ Gigola (DE),2025-03-21T00:00:00.000,/events/2088491,DJ Gigola,Plano B,Porto,Portugal,"Porto, Portugal","Porto, Portugal",6.269732449999999,-8.6107884,"(41.1494512, -8.6107884)",41.1494512
DJ Gigola,DJ Gigola / Gerardo Niva,2025-03-22T00:00:00.000,/events/2085135,DJ Gigola_Gerardo Niva,Mondo,Madrid,Spain,"Madrid, Spain","Madrid, Spain",6.269732449999999,-3.7035825,"(40.4167047, -3.7035825)",40.4167047
DJ Gigola,Live From Earth Klub,2025-03-28T00:00:00.000,/events/2099234,Blawan_DJ Hyperdrive_KI/KI_RONI_THC_Bauernfeind_DJ Gigola_MALUGI_Rosa Pistola_IceMorph,Berghain | Panorama Bar | Säule,Berlin,Germany,"Berlin, Germany","Berlin, Germany",6.269732449999999,13.3989367,"(52.510885, 13.3989367)",52.510885
DJ Gigola,Movement Festival 2025,2025-05-24T00:00:00.000,/events/2101035,ADMN_A K_Anfisa Letyago_Annicka_Ashton Swinton_Augustus Williams_Avalon Emerson_BeatLoaf_BEIGE_Ben UFO_Blackmoonchild_The Blessed Madonna_Boys Noize_Brian Kage_Carl Cox_Carl Craig_Moodymann_Mike Banks_Chaos In The CBD_Charlotte de Witte_Chase & Status_Chris Liebing_Chuck Daniels_Claude VonStroke_Cobblestone Jazz_Craig Gonzalez_D.Dan_DeepChord_Dennis Ferrer_Disc Jockey George_DJ Cent_DJ Gigola_DJ Godfather_DJ Holographic_DJ I.V._DJ Minx_DJ Nobu_DJ Seinfeld_DJ Seoul (Direct Drive)_DJ SPHiNX_DJ Tennis_Chloé Caillet_Donavan Glover_Dubfire_Ela Minus_Erika_Father Dukes_FJAAK_Fullbodydurag_Gay Marvine_Goldie_Photek_HAAi_Hamdi_Helena Hauff_Henry Brooks_Hiroko Yamamura_HiTech_horsegiirL_Huey Mnemonic_Jamie xx_Jem (1)_JMT (2)_John Summit_Jon Dixon_Joris Voorn_Joseph Capriati_Junior Sanchez_Keith Worthy_Kevin Reynolds_Kevin Saunderson_The Saunderson Brothers_KlangKuenstler_Layton Giordani_Loco Dice_Vintage Culture_Loren_Marcel Dettmann_Mark Broom_Mau P_MCR-T_Mike Schommer_Mike Servito_Mister Joshooa_Nina Kraviz_Norm Talley_Octave One_Patrick Topping_Peter Croce_Prospa_RAEDY LEX_Ricardo Villalobos_Rimarkable_Riva Starr_Salar Ansari_salute_Sammy Virji_Sara Landry_Seth Troxler_Shawescape Renegade_Shawn Rudiman_Shimza_sillygirlcarmen_Sonny Fodera_Soul Clap_Stacey Hotwaxx Hale_Stacey Pullen_TSHA_Waajeed_LADYMONIX_Walker & Royce,Hart Plaza,Detroit,United States of America,"Detroit, United States of America","Detroit, United States of America",6.269732449999999,-83.0466403,"(42.3315509, -83.0466403)",42.3315509
DJ Gigola,Movement Music Festival,2025-05-24T00:00:00.000,/events/2061680,Anfisa Letyago_Carl Cox_Carl Craig_Chase & Status_DJ Gigola_DJ Minx_DJ Nobu_Ela Minus_HiTech_Jamie xx_John Summit_KlangKuenstler_Marcel Dettmann_Patrick Topping_Sama' Abdulhadi_Sammy Virji,Hart Plaza,Detroit,United States of America,"Detroit, United States of America","Detroit, United States of America",6.269732449999999,-83.0466403,"(42.3315509, -83.0466403)",42.3315509
DJ Gigola,Lido Festival,2025-06-06T00:00:00.000,/events/2033611,Massive Attack_Arca_DJ Harvey_John Glacier_Sampha_Romy_Panda Bear_Jamie xx_Wookie_DJ Gigola_Shy One_livwutang,Victoria Park,London,United Kingdom,"London, United Kingdom","London, United Kingdom",6.269732449999999,-0.1277653,"(51.5074456, -0.1277653)",51.5074456
DJ Gigola,Extrema Outdoor Belgium 2025,2025-06-06T00:00:00.000,/events/2072755,6EJOU_999999999_Aaron Hibell_Afem Syko_ALT8_Samm_Amber Broos_Andres Campo_Apollonia_ARODES_Axel Haube_Azyr_Bae Blade_Ben Böhmer_Benwal_Bora Uzer_Brina Knauss_BYØRN_Calussa_Chelina Manuhutu_Dexphase_Diffrent_DJ BORING_MrD_DJ Fuckoff_DJ Gigola_DJ Heartstring_DJEFF_Eli Brown_EMILIJA_Enrico Sangiuliano_Eric Prydz_Franky Rizardo_Funk Tribu_Gray Cosmo_Hannah Laing_Helena Lauwaert_HU_Hugel_Indira Paganotto_JAMIIE_Jan Blomqvist_Job Jobse_Joyhauser_Juliet Fox_Kamafaka_KARAH_Karim Soliman_KI/KI_Layla Benitez_LE YORA_Lilly Palmer_Lolu Menayed_Mad Dog_Mahmut Orhan_Marcel Fengler_MATRAKK_Maxim Lany_MCR-T_meera (NO)_Melanie Ribbe_Mika Heggemann_Milo Spykers_Mind Against_Miss Monique_MRAK_Nico Morano_Nico Moreno_NOVAH_OGUZ_Paco Osuna_Parkerstrange_Partiboi69_Philou Louzolo_Prospa_Prunk_Romina Mazzini_SALOME_Seth Troxler_Shimza_SONA (2)_Soraya_Space 92_Sparrow & Barbossa_SPFDJ_STEYA_SYREETA_The Element_Themba_Vintage Culture_Winson_Young Marco_Yulia Niko_Zamna Soundsystem_ØTTA_Azra Tekuma_Maharti_BDC (Aus)_Boatman_Calao_Christophe_Dauw_EMJIE_ESIN BOZ_Flieder_Herton_Jane Muss_Jasper Fioole_Kapibara_Kirsti_Lexx_Luna (1)_Marhu_Miamor_MOKER_Neon_Oulad Omar_Paige_Romy Janssen_Stefan Meser_Swart_Tijn Driessen,Kelchterhoef,All,Belgium,"All, Belgium",Belgium,6.269732449999999,4.6667145,"(50.6402809, 4.6667145)",50.6402809
DJ Gigola,Waves Open Air 2025,2025-06-14T00:00:00.000,/events/2060671,Aiden (DE)_Arman John_Bad Boombox_Benwal_CAIVA_Clara Cuvé_Cloudy_Daria Kolosova_Dax J_DJ Gigola_DJ Hyperdrive_EloTrance_Justin Tinderdate_Funk Tribu_Janis Zielinski_KlangKuenstler_Kobosil_Somewhen_Melushka_Mischluft_Odymel_Upper90_ÜBERKIKZ,Spaßbad Wedemark,Hannover,Germany,"Hannover, Germany","Hannover, Germany",6.269732449999999,9.7385532,"(52.3744779, 9.7385532)",52.3744779
DJ Gigola,"Parklife 2025, 14th - 15th June",2025-06-14T00:00:00.000,/events/2092487,Charli XCX_Peggy Gou_PAWSA_Bicep_Overmono_Confidence Man_Hybrid Minds_Rudimental_Chris Stussy_Marc Rebillet_Steve Angello_Ewan McVicar_Mochakk_Skream_Benga_Hedex_Bou (UK)_Andy C_Armand Van Helden_Josh Baker_KI/KI_DJ Heartstring_Joy Orbison_Interplanetary Criminal_Girls Don't Sync_Mau P_salute_Max Dean_Rossi_Partiboi69_MALUGI_Prospa_Sam Divine_Chloé Caillet_DJ Gigola_Alex Farell_D.O.D._Paul Woolford_Fish56Octagon_Mella Dee_Chaos In The CBD_K Motionz_Todd Edwards_Sally C_4am Kru_sim0ne_Luuk van Dijk_Notion_BassLayerz_Obskur_Morgan Seatree_Conducta_Bakey_Oppidan_Y U QT_Effy_Paige Tomlinson_L.P. Rhythm_A Little Sound_Enzo is Burning_Champion_Faster Horses_Kyle Starkey_Inafekt_Surusinghe_Saint Ludo_Ghoulish_Diffrent_Harriet Jaxxon_Club Angel_Miley Serious_Eksman_IC3_Strategy_Nautica_Gina Breeze_Aletha_SHUFFA_North Base_PACH_Tempza_Carasel_Krysko_Rich Reason_Tonn Piper_Fox (US)_Chunky_Riko Dan_Mark XTC_Leaha_Mix-Stress_Urbi_Nicola Bear_Joe Motion_Yami_Larishka_BUTCHABOI,Heaton Park,Manchester,United Kingdom,"Manchester, United Kingdom","Manchester, United Kingdom",6.269732449999999,-2.2451148,"(53.4794892, -2.2451148)",53.4794892
DJ Gigola,AWAKENINGS FESTIVAL 2025,2025-07-11T00:00:00.000,/events/1963535,6EJOU_999999999_Adam Beyer_Adriatique_Alan Fitzpatrick_Alex Wann_Âme_AnD_Andres Campo_Anfisa Letyago_Azyr_Bart Skils_Ben Böhmer_Ben Klock_Benwal_BLONDEX_Bullzeye_Secret Cinema_Carl Cox_Carlita_Carmen Lisa (2)_Charlotte de Witte_Chris Stussy_Cincity_Clara Cuvé_Damian Lazarus_Daria Kolosova_Delano Legito_DIØN_Dixon_Jimi Jules_DJ Gigola_DJ Nobu_DJ Rush_Eli Brown_Ellen Allien_Elli Acula_Emvae_Enrico Sangiuliano_Estella Boersma_Fatima Hajji_FJAAK_Freddy K_Funk Assault_Funk Tribu_Hot Since 82_Prunk_Hyperaktivist_I Hate Models_Indira Paganotto_Innellea_Inox Traxx_Jamie Jones_Joseph Capriati_Joëlla Jackson_Joris Voorn_Josh Baker_Rossi_Joyhauser_Kasia (OFC)_KETTAMA_Kevin de Vries_Kobosil_LAMMER_LB aka LABAT_Len Faki_Locus Error_Lucky Done Gone_Luuk van Dijk_M-High_Marco Carola_MARRØN_Mau P_Mha iri_Milo Spykers_Mind Against_Miss Monique_Nina Kraviz_Noise Mafia_NOVAH_ØTTA_Pan-Pot_Pegassi_Popof_Space 92_Recondite_Reinier Zonneveld_Richie Hawtin_Rødhåd_Sara Landry_Setaoc Mass_Shimza_The Lady Machine_The Martinez Brothers_TWIENA_Vera Grace_Vintage Culture_VNTM_VTSS_X CLUB._Yulia Niko,Beekse Bergen,All,Netherlands,"All, Netherlands",Netherlands,6.269732449999999,5.6343227,"(52.2434979, 5.6343227)",52.2434979
DJ Gigola,Brunch Electronik Festival 2025,2025-08-08T00:00:00.000,/events/1994432,Adriatique_Anetha_Ben Böhmer_Chelina Manuhutu_Chloé Caillet_Chris Liebing_Chris Stussy_Colyn_Cromby_Daria Kolosova_Deep Dish_DJ Gigola_DJ Tennis_Eliza Rose_FJAAK_Flug_Helado Negro_Ilario Alicante_Imbermind_Interplanetary Criminal_Joëlla Jackson_Jungle (UK)_KlangKuenstler_Korolova_Loco Dice_Maceo Plex_Marco Carola_Seth Troxler_Mariano Mellino_Maribou State_Marlon Hoffstadt_The Martinez Brothers_MËSTIZA_Monolink_Myd_Nina Kraviz_Pachanga Boys_Paco Osuna_Patrick Mason_Purple Disco Machine_Pretty Girl_Roisin Murphy_Sally C_Sofia Kourtesis_Suze Ijó,Parc del Fòrum,Barcelona,Spain,"Barcelona, Spain","Barcelona, Spain",6.269732449999999,2.1774322,"(41.3828939, 2.1774322)",41.3828939
DJ Gigola,Glitch Festival 2025,2025-08-13T00:00:00.000,/events/2016418,Anetha_Aurora Halal_Bad Boombox_Bella Claxton_Benwal_CARV_Charlie Sparks_Chlär_Clara Cuvé_CLTX_Daria Kolosova_Dax J_DJ Fuckoff_DJ Gigola_DJ Heartstring_DJ Nobu_dj sweet6teen_THC_DJ TOOL_DYEN_Effy_Essy_Freddy K_Alarico_Frederic._Funk Tribu_Human Safari_I Hate Models_Interplanetary Criminal_Janis Zielinski_Justin Jay_Mija_KETTAMA_Kyle Starkey_LESSSS_MALUGI_Mama Snake_Maruwa_Miss Bashful x DBBD_Moxes_MRD (NO)_Bae Blade_ØTTA_Pablo Bozzi_Peach_Pegassi_Philippa Pacho_Quest_Rene Wise_Rødhåd_Sam Alfred_Sara Landry_Setaoc Mass_Shanti Celeste_SHDW_ANNĒ_Spacer Woman_SPFDJ_Supergloss_Tasha_Upper90_VTSS_Yanamaste_Acidulant_Sound synthesis (2)_Fresh Prince_Budg_T-RAIL_Damz_Echofaze_Georg MT_INVERTED (MT)_Kyle Cortis_Manthrax_Parvatis_Reactant_Scythe_Sean Rickett_STK (MT)_YAZMIN (MT),Gianpula Village,All,Malta,"All, Malta",Malta,6.269732449999999,14.4476911,"(35.8885993, 14.4476911)",35.8885993
DJ Gigola,SPIN Bielefeld,2025-08-16T00:00:00.000,/events/2092171,ALBA (3)_DJ ALKARLINE_Chippy Nonstop_DJ Gigola_DJ SMS_Gerd Janson_Marie Montexier_Ogazón_SHOKI287,Ravensberger Park,Bielefeld,Germany,"Bielefeld, Germany","Bielefeld, Germany",6.269732449999999,8.531007,"(52.0191005, 8.531007)",52.0191005
DJ Gigola,ZeeZout Festival,2025-08-30T00:00:00.000,/events/2102452,Amor Satyr_Berkan V8_CARISTA_DART_Inafekt_Dee Diggs_DJ Fuckoff_DJ AYA_DJ Gigola_MCR-T_DJ MELL G_Emvae_Moxes_Essy_Lieke TR_Jorn Liefdeshuis_I-F_Janis Zielinski_LAMMER_Makam_TAFKAMP_MARRØN_AMORAL_Milion_SAIDAH_Moopie_OK Williams_mul/ANNA_Narciss_Doppelgang_NewTone_Not A Fan_Odymel_Partiboi69_Sam Alfred_Slimfit_Tjade_TWIENA_Upper90,Tuinen van West,Amsterdam,Netherlands,"Amsterdam, Netherlands","Amsterdam, Netherlands",6.269732449999999,4.8924534,"(52.3730796, 4.8924534)",52.3730796
DJ Heartstring,T7: DJ Heartstring,2025-02-21T00:00:00.000,/events/2076644,DJ Heartstring,T7 Paris,Paris,France,"Paris, France","Paris, France",6.269732449999999,2.3200410217200766,"(48.8588897, 2.3200410217200766)",48.8588897
DJ Heartstring,Intercell Klokgebouw 2025,2025-02-22T00:00:00.000,/events/2005956,Anetha_Bad Boombox_Benwal_Cybersex_DJ Fuckoff_DJ Heartstring_Funk Tribu_Pegassi_Garbage Delight_Garbage Delight_Dissolver_Vall Du Son_SPFDJ_Daria Kolosova_Supergloss_Waxdiva,Klokgebouw,Eindhoven,Netherlands,"Eindhoven, Netherlands","Eindhoven, Netherlands",6.269732449999999,5.478633,"(51.4392648, 5.478633)",51.4392648
DJ Heartstring,"Teenage Dreams with DJ Heartstring, Estella Boersma, DJ Eivissa ",2025-03-01T00:00:00.000,/events/2106016,Alfandi_Beau Didier_DJ Eivissa_DJ Heartstring_Estella Boersma_Haaizey_Speckman,Uebel & Gefährlich,Hamburg,Germany,"Hamburg, Germany","Hamburg, Germany",6.269732449999999,10.000654,"(53.550341, 10.000654)",53.550341
DJ Heartstring,DJ Heartstring ∞ Roxy,2025-03-14T00:00:00.000,/events/2054345,DJ Heartstring,Roxy,Prague,Czech Republic,"Prague, Czech Republic","Prague, Czech Republic",6.269732449999999,14.446459273258009,"(50.0596288, 14.446459273258009)",50.0596288
DJ Heartstring,DJ Heartstring & OCIN & CH4YN & DJ Sweedee,2025-03-15T00:00:00.000,/events/2108397,DJ Heartstring_OCIN_CH4YN_DJ Sweedee,Elysia,Basel,Switzerland,"Basel, Switzerland","Basel, Switzerland",6.269732449999999,7.5878261,"(47.5581077, 7.5878261)",47.5581077
DJ Heartstring,Otherside Music & Arts Festival,2025-03-16T00:00:00.000,/events/2043774,Blasha & Allatt_Clouds_Funk Assault_Gaskin_DJ Heartstring_MALUGI_Max Dean_Paige Tomlinson_Prozak (2)_Silva Bumpa (2),Rock Farm,Dublin,Ireland,"Dublin, Ireland","Dublin, Ireland",6.269732449999999,-6.2605593,"(53.3493795, -6.2605593)",53.3493795
DJ Heartstring,Time Warp Mannheim Germany 2025,2025-04-05T00:00:00.000,/events/2031556,Acid Pauli_Adam Beyer_Adam Ten_Adiel_Quest_Airrica_Amelie Lens_Anfisa Letyago_Ben Klock_Black Coffee_CamelPhat_Carlita_Charlotte de Witte_Clara Cuvé_Daria Kolosova_Héctor Oaks_David Löhlein_Dixon_Chloé Caillet_DJ Heartstring_Enrico Sangiuliano_Franky Rizardo_HAAi_Indira Paganotto_Jamie Jones_Joseph Capriati_KI/KI_Loco Dice_MALUGI_Marco Carola_Mischluft_Pegassi_Nina Kraviz_Pan-Pot_Patrick Mason_Ricardo Villalobos_Richie Hawtin_Sedef Adasï_Seebase_Seth Troxler_Sven Vath_SYREETA,Maimarkthalle,Mannheim,Germany,"Mannheim, Germany","Mannheim, Germany",6.269732449999999,8.4673098,"(49.4892913, 8.4673098)",49.4892913
DJ Heartstring,SWG3 presents DJ Heartstring,2025-04-12T00:00:00.000,/events/1983330,DJ Heartstring,SWG3,Glasgow,United Kingdom,"Glasgow, United Kingdom","Glasgow, United Kingdom",6.269732449999999,-4.2501687,"(55.861155, -4.2501687)",55.861155
DJ Heartstring,Hangar Festival 2025,2025-04-19T00:00:00.000,/events/2039300,Alex Wann_Betical_Carlita_DJ Heartstring_Effy_Fenrick_Maceo Plex_TDJ_Alycia Bezgo_Bibi Seck_Christian AB_Quest (IT)_Daisy Weweh_Volpe_DJ BORING_ISAbella_Jungle (UK)_Mall Grab_Ogazón_ttyfal,Port of Brussels,Brussels,Belgium,"Brussels, Belgium","Brussels, Belgium",6.269732449999999,4.351697,"(50.8465573, 4.351697)",50.8465573
DJ Heartstring,DGTL Amsterdam 2025,2025-04-18T00:00:00.000,/events/1900358,angelboy_Berkan V8_Brutalismus 3000_Coco Coquelicot_Curol_Danielle_NIKS_Daria Kolosova_Dax J_David Vunk_fka.m4a_Dee Diggs_Deep Brown_Doppelgang_Fais Le Beau_Faustin (NL)_Funk Assault_Chlär_Alarico_GiGi FM_Joris Voorn_Lucky Done Gone_Milion_Mac Declos_Mary Lake_Mall Grab_MALUGI_Mano Le Tough_Moxes_Nicky Elisabeth_Patrick Mason_Pegassi_Rancido_Rene Wise_Roi Perez_Saoirse_Sedef Adasï_Shanti Celeste_sim0ne_Spray_Spriitzz_The Blaze_TWIENA_999999999_Anetha_Benjamin Berg_Carlita_Dj Babatr_dj g2g_DJ Heartstring_DJ Hyperdrive_Essy_Fafi Abdel Nour_PARAMIDA_Fatima Yamaha_Folamour_Franky Rizardo_Funk Tribu_Garbage Delight_Garbage Delight_Honey Dijon_Introspekt_Julya Karma_Kenny Dope_Kiasmos_Janus Rasmussen_Kikelomo_Kyra Khaldi_LB aka LABAT_Masalo_Monolink_Moodymann_Niiomi_Rossi_Spacer Woman_Surusinghe_Teqmun_Vera Grace_X-Coast,NDSM Docklands,Amsterdam,Netherlands,"Amsterdam, Netherlands","Amsterdam, Netherlands",6.269732449999999,4.8924534,"(52.3730796, 4.8924534)",52.3730796
DJ Heartstring,DJ Heartstring - SHINE Easter Monday,2025-04-21T00:00:00.000,/events/2097834,DJ Heartstring,The Telegraph Building,Belfast,United Kingdom,"Belfast, United Kingdom","Belfast, United Kingdom",6.269732449999999,-5.9301829,"(54.596391, -5.9301829)",54.596391
DJ Heartstring,OPEN AIR #1: DJ Heartstring / Benwal / Gerardo Niva / Hello Sasy,2025-05-01T00:00:00.000,/events/2093395,DJ Heartstring_Benwal_Gerardo Niva_Hello Sasy,Terraza Jowke,Madrid,Spain,"Madrid, Spain","Madrid, Spain",6.269732449999999,-3.7035825,"(40.4167047, -3.7035825)",40.4167047
DJ Heartstring,Extrema Outdoor Belgium 2025,2025-06-06T00:00:00.000,/events/2072755,6EJOU_999999999_Aaron Hibell_Afem Syko_ALT8_Samm_Amber Broos_Andres Campo_Apollonia_ARODES_Axel Haube_Azyr_Bae Blade_Ben Böhmer_Benwal_Bora Uzer_Brina Knauss_BYØRN_Calussa_Chelina Manuhutu_Dexphase_Diffrent_DJ BORING_MrD_DJ Fuckoff_DJ Gigola_DJ Heartstring_DJEFF_Eli Brown_EMILIJA_Enrico Sangiuliano_Eric Prydz_Franky Rizardo_Funk Tribu_Gray Cosmo_Hannah Laing_Helena Lauwaert_HU_Hugel_Indira Paganotto_JAMIIE_Jan Blomqvist_Job Jobse_Joyhauser_Juliet Fox_Kamafaka_KARAH_Karim Soliman_KI/KI_Layla Benitez_LE YORA_Lilly Palmer_Lolu Menayed_Mad Dog_Mahmut Orhan_Marcel Fengler_MATRAKK_Maxim Lany_MCR-T_meera (NO)_Melanie Ribbe_Mika Heggemann_Milo Spykers_Mind Against_Miss Monique_MRAK_Nico Morano_Nico Moreno_NOVAH_OGUZ_Paco Osuna_Parkerstrange_Partiboi69_Philou Louzolo_Prospa_Prunk_Romina Mazzini_SALOME_Seth Troxler_Shimza_SONA (2)_Soraya_Space 92_Sparrow & Barbossa_SPFDJ_STEYA_SYREETA_The Element_Themba_Vintage Culture_Winson_Young Marco_Yulia Niko_Zamna Soundsystem_ØTTA_Azra Tekuma_Maharti_BDC (Aus)_Boatman_Calao_Christophe_Dauw_EMJIE_ESIN BOZ_Flieder_Herton_Jane Muss_Jasper Fioole_Kapibara_Kirsti_Lexx_Luna (1)_Marhu_Miamor_MOKER_Neon_Oulad Omar_Paige_Romy Janssen_Stefan Meser_Swart_Tijn Driessen,Kelchterhoef,All,Belgium,"All, Belgium",Belgium,6.269732449999999,4.6667145,"(50.6402809, 4.6667145)",50.6402809
DJ Heartstring,Sónar by Day 2025,2025-06-12T00:00:00.000,/events/2048237,ABADIR_Actress_Suzanne Ciani_Blawan_Branko_Chris Watson_DjSport_Fafi Abdel Nour_Jennifer Loveless_dj g2g_Grand River_DJ Heartstring_Honey Dijon_Juliana Huxtable_Kebra (BR)_Le Motel_MCR-T_Mochakk_NEW YORK_Overmono_Eomac_Sama' Abdulhadi_Sara Persico_Mika Oki_Sarra Wild_Shannen SP_Shapednoise_Teto Preto,Fira Barcelona,Barcelona,Spain,"Barcelona, Spain","Barcelona, Spain",6.269732449999999,2.1774322,"(41.3828939, 2.1774322)",41.3828939
DJ Heartstring,"Parklife 2025, 14th - 15th June",2025-06-14T00:00:00.000,/events/2092487,Charli XCX_Peggy Gou_PAWSA_Bicep_Overmono_Confidence Man_Hybrid Minds_Rudimental_Chris Stussy_Marc Rebillet_Steve Angello_Ewan McVicar_Mochakk_Skream_Benga_Hedex_Bou (UK)_Andy C_Armand Van Helden_Josh Baker_KI/KI_DJ Heartstring_Joy Orbison_Interplanetary Criminal_Girls Don't Sync_Mau P_salute_Max Dean_Rossi_Partiboi69_MALUGI_Prospa_Sam Divine_Chloé Caillet_DJ Gigola_Alex Farell_D.O.D._Paul Woolford_Fish56Octagon_Mella Dee_Chaos In The CBD_K Motionz_Todd Edwards_Sally C_4am Kru_sim0ne_Luuk van Dijk_Notion_BassLayerz_Obskur_Morgan Seatree_Conducta_Bakey_Oppidan_Y U QT_Effy_Paige Tomlinson_L.P. Rhythm_A Little Sound_Enzo is Burning_Champion_Faster Horses_Kyle Starkey_Inafekt_Surusinghe_Saint Ludo_Ghoulish_Diffrent_Harriet Jaxxon_Club Angel_Miley Serious_Eksman_IC3_Strategy_Nautica_Gina Breeze_Aletha_SHUFFA_North Base_PACH_Tempza_Carasel_Krysko_Rich Reason_Tonn Piper_Fox (US)_Chunky_Riko Dan_Mark XTC_Leaha_Mix-Stress_Urbi_Nicola Bear_Joe Motion_Yami_Larishka_BUTCHABOI,Heaton Park,Manchester,United Kingdom,"Manchester, United Kingdom","Manchester, United Kingdom",6.269732449999999,-2.2451148,"(53.4794892, -2.2451148)",53.4794892
DJ Heartstring,Glitch Festival 2025,2025-08-13T00:00:00.000,/events/2016418,Anetha_Aurora Halal_Bad Boombox_Bella Claxton_Benwal_CARV_Charlie Sparks_Chlär_Clara Cuvé_CLTX_Daria Kolosova_Dax J_DJ Fuckoff_DJ Gigola_DJ Heartstring_DJ Nobu_dj sweet6teen_THC_DJ TOOL_DYEN_Effy_Essy_Freddy K_Alarico_Frederic._Funk Tribu_Human Safari_I Hate Models_Interplanetary Criminal_Janis Zielinski_Justin Jay_Mija_KETTAMA_Kyle Starkey_LESSSS_MALUGI_Mama Snake_Maruwa_Miss Bashful x DBBD_Moxes_MRD (NO)_Bae Blade_ØTTA_Pablo Bozzi_Peach_Pegassi_Philippa Pacho_Quest_Rene Wise_Rødhåd_Sam Alfred_Sara Landry_Setaoc Mass_Shanti Celeste_SHDW_ANNĒ_Spacer Woman_SPFDJ_Supergloss_Tasha_Upper90_VTSS_Yanamaste_Acidulant_Sound synthesis (2)_Fresh Prince_Budg_T-RAIL_Damz_Echofaze_Georg MT_INVERTED (MT)_Kyle Cortis_Manthrax_Parvatis_Reactant_Scythe_Sean Rickett_STK (MT)_YAZMIN (MT),Gianpula Village,All,Malta,"All, Malta",Malta,6.269732449999999,14.4476911,"(35.8885993, 14.4476911)",35.8885993
DJ Heartstring,Sonus Croatia 2025,2025-08-17T00:00:00.000,/events/1990681,Adam Beyer_Adriatique_Alex Wann_ALISHA_Anetha_Artbat_Bedouin_Ben Hemsley_Ben Klock_Ben Sterling_Boris Brejcha_Deborah De Luca_Dennis Cruz_DJ Heartstring_Fatima Hajji_FJAAK_Fleur Shore_Funk Tribu_Bad Boombox_Gordo_Indira Paganotto_Jan Blomqvist_Joseph Capriati_KI/KI_Loco Dice_Lovefoxy_Mau P_Miss Monique_Nico Moreno_Ogazón_ØTTA_Partiboi69_Patrick Mason_Reinier Zonneveld_Ricardo Villalobos_Richie Hawtin_Seth Troxler_Shimza_Sven Vath_Trym_Vintage Culture_WhoMadeWho,Zrce Beach,All,Croatia,"All, Croatia",Croatia,6.269732449999999,15.6575209,"(45.3658443, 15.6575209)",45.3658443
DJ Heartstring,Onder De Radar Festival 2025,2025-08-29T00:00:00.000,/events/2104248,999999999_Benwal_BIIA_Dee Diggs_Diffrent_DJ Heartstring_Elias Mazian_Hadone_JASSS_livwutang_Luuk van Dijk_M-High_Mall Grab_Moxes_Oscar Mulero_Partiboi69_Pegassi_Remma_Leen (NL)_Sammy Virji_SAIDAH_Tjade_Winson_ZEUZ,Vliegbasis Twenthe,All,Netherlands,"All, Netherlands",Netherlands,6.269732449999999,5.6343227,"(52.2434979, 5.6343227)",52.2434979
DJ Hyperdrive,BCCO x plurALL - Bogotá ,2025-03-08T00:00:00.000,/events/2060926,ÜBERKIKZ_DJ Hyperdrive_Santi Lorz_Alex Jockey_RMMBR,Octava,Bogotá,Colombia,"Bogotá, Colombia","Bogotá, Colombia",6.269732449999999,-74.0720917,"(4.711011, -74.0720917)",4.711011
DJ Hyperdrive,"Escape: Special Guest, DJ Hyperdrive, Raven, River Moon + Junior M, Neueportrait",2025-03-21T00:00:00.000,/events/2093690,DJ Hyperdrive_Raven (CA)_River Moon_Junior M (US)_Neueportrait,Paragon,New York City,United States of America,"New York City, United States of America","New York City, United States of America",6.269732449999999,-74.0060152,"(40.7127281, -74.0060152)",40.7127281
DJ Hyperdrive,Live From Earth Klub,2025-03-28T00:00:00.000,/events/2099234,Blawan_DJ Hyperdrive_KI/KI_RONI_THC_Bauernfeind_DJ Gigola_MALUGI_Rosa Pistola_IceMorph,Berghain | Panorama Bar | Säule,Berlin,Germany,"Berlin, Germany","Berlin, Germany",6.269732449999999,13.3989367,"(52.510885, 13.3989367)",52.510885
DJ Hyperdrive,Rotterdam Rave 'Spring Special' 2025,2025-03-29T00:00:00.000,/events/2077833,6EJOU_Adrian Mills_Cloudy_Afem Syko_Cynthia Spiering_Diffrent_DJ Hyperdrive_DURDENHAUER_Fenrick_future.666_ÜBERKIKZ_KARAH_KLOFAMA_KUKO_Vendex_LAMMER_NOVAH_Pegassi_Winson,Maassilo,Rotterdam,Netherlands,"Rotterdam, Netherlands","Rotterdam, Netherlands",6.269732449999999,4.47775,"(51.9244424, 4.47775)",51.9244424
DJ Hyperdrive,Transgenik,2025-04-05T00:00:00.000,/events/2097103,DJ Hyperdrive_Ozzwald_Prauze_SZG,Fvtvr,Paris,France,"Paris, France","Paris, France",6.269732449999999,2.3200410217200766,"(48.8588897, 2.3200410217200766)",48.8588897
DJ Hyperdrive,BCCO x SWING pres. Bad Boombox & DJ Hyperdrive,2025-04-18T00:00:00.000,/events/2091402,Bad Boombox_DJ Hyperdrive_Luxi Villar,INPUT High Fidelity Dance Club,Barcelona,Spain,"Barcelona, Spain","Barcelona, Spain",6.269732449999999,2.1774322,"(41.3828939, 2.1774322)",41.3828939
DJ Hyperdrive,Terminal V Festival 2025,2025-04-19T00:00:00.000,/events/2049149,999999999_Adrian Mills_AK SPORTS_Alex Farell_ALT8_Azyr_Bad Boombox_Mischluft_Benwal_BIIA_Black Traffic_Blawan_Helena Hauff_Brutalismus 3000_CADZOW_Carmen Electro_Laure Croft_CARV_Charlie Sparks_Parfait_Clara Cuvé_Clouds_Cloudy_Daria Kolosova_Dax J_Deborah De Luca_DJ Hyperdrive_DYEN_EARGASM GOD_ECZODIA_Fish56Octagon_fumi (DE)_Funk Assault_Funk Tribu_Holy Priest_JAZZY (2)_Justin Jay_KETTAMA_Kyle Starkey_LB aka LABAT_Luca Agnelli_Noise Mafia_Odymel_OGUZ_Patrick Mason_PRADA 2000_Reinier Zonneveld_Serafina_SIKOTI_sim0ne_t e s t p r e s s_The Muffin Man_Tommy Holohan_Vendex_WILDERÍCH_X CLUB._zwilling.,Royal Highland Centre,Edinburgh,United Kingdom,"Edinburgh, United Kingdom","Edinburgh, United Kingdom",6.269732449999999,-3.1883749,"(55.9533456, -3.1883749)",55.9533456
DJ Hyperdrive,DGTL Amsterdam 2025,2025-04-18T00:00:00.000,/events/1900358,angelboy_Berkan V8_Brutalismus 3000_Coco Coquelicot_Curol_Danielle_NIKS_Daria Kolosova_Dax J_David Vunk_fka.m4a_Dee Diggs_Deep Brown_Doppelgang_Fais Le Beau_Faustin (NL)_Funk Assault_Chlär_Alarico_GiGi FM_Joris Voorn_Lucky Done Gone_Milion_Mac Declos_Mary Lake_Mall Grab_MALUGI_Mano Le Tough_Moxes_Nicky Elisabeth_Patrick Mason_Pegassi_Rancido_Rene Wise_Roi Perez_Saoirse_Sedef Adasï_Shanti Celeste_sim0ne_Spray_Spriitzz_The Blaze_TWIENA_999999999_Anetha_Benjamin Berg_Carlita_Dj Babatr_dj g2g_DJ Heartstring_DJ Hyperdrive_Essy_Fafi Abdel Nour_PARAMIDA_Fatima Yamaha_Folamour_Franky Rizardo_Funk Tribu_Garbage Delight_Garbage Delight_Honey Dijon_Introspekt_Julya Karma_Kenny Dope_Kiasmos_Janus Rasmussen_Kikelomo_Kyra Khaldi_LB aka LABAT_Masalo_Monolink_Moodymann_Niiomi_Rossi_Spacer Woman_Surusinghe_Teqmun_Vera Grace_X-Coast,NDSM Docklands,Amsterdam,Netherlands,"Amsterdam, Netherlands","Amsterdam, Netherlands",6.269732449999999,4.8924534,"(52.3730796, 4.8924534)",52.3730796
DJ Hyperdrive,POLLERWIESEN OPENING 2025 (NIGHT Bootshaus),2025-04-26T00:00:00.000,/events/2104196,Ellen Allien_DJ Hyperdrive_Supergloss,Bootshaus,Cologne,Germany,"Cologne, Germany","Cologne, Germany",6.269732449999999,6.959974,"(50.938361, 6.959974)",50.938361
DJ Hyperdrive,PollerWiesen Opening 2025,2025-04-26T00:00:00.000,/events/1915152,DJ Hyperdrive_ÜBERKIKZ_Ellen Allien_Supergloss_Kobosil_lyzanne_DCHM_Mischluft_AMSL_Anna Cainelli_Savsannah_Sedaction,Jugendpark,Cologne,Germany,"Cologne, Germany","Cologne, Germany",6.269732449999999,6.959974,"(50.938361, 6.959974)",50.938361
DJ Hyperdrive,SESH May Day Open Air + Indoor,2025-05-01T00:00:00.000,/events/2063294,Clara Cuvé_X CLUB._MCR-T_DJ Hyperdrive_DJ GUESTLIST_Butschi_DJ Cringey_ANTHRAZIT,Napoleon Komplex,Berlin,Germany,"Berlin, Germany","Berlin, Germany",6.269732449999999,13.3989367,"(52.510885, 13.3989367)",52.510885
DJ Hyperdrive,Ikarus Festival 2025,2025-06-06T00:00:00.000,/events/2005844,Alignment_Armin van Buuren_Boris Brejcha_Deborah De Luca_Fisher (OZ)_Scooter_999999999_Alfred Heinrichs_Amelie Lens_Charlie Sparks_Ellen Allien_Holy Priest_Kalte Liebe_I Hate Models_Kobosil_Lauren Mia_Moritz Hofbauer_Sam Paganini_Schrotthagen_STELLA BOSSI_T78_Alle Farben_Da Tweekaz_Kevin de Vries_LOVRA_MAUSIO_AKA AKA_fka.m4a_Format B_Moonbootica_Angerfist_Deadly Guns_Dual Damage_Dr Donk_Krowdexx_NAMARA_Radical Redemption_Unicorn on Ketamine_Adrian Mills_Afem Syko_Bad Boombox_Cleopard2000_DJ YARAK_DJ Hyperdrive_ÜBERKIKZ_Justin Tinderdate_EloTrance_Mika Heggemann_Mischluft_Odymel_ØTTA_Paraçek_PRADA 2000_Somewhen_Trancemaster Krause_6EJOU_A.N.I._CALLUSH_CARV_Cloudy_CLTX_LESSSS_Johannes Schuster_In Verruf_KUKO_Lee Ann Roberts_NOVAH_Nusha_Rebekah_Vendex_Winson_Querox,Allgäu Airport - Flughafen Memmingen,Bavaria,Germany,"Bavaria, Germany","Bavaria, Germany",6.269732449999999,11.4038717,"(48.9467562, 11.4038717)",48.9467562
DJ Hyperdrive,Waves Open Air 2025,2025-06-14T00:00:00.000,/events/2060671,Aiden (DE)_Arman John_Bad Boombox_Benwal_CAIVA_Clara Cuvé_Cloudy_Daria Kolosova_Dax J_DJ Gigola_DJ Hyperdrive_EloTrance_Justin Tinderdate_Funk Tribu_Janis Zielinski_KlangKuenstler_Kobosil_Somewhen_Melushka_Mischluft_Odymel_Upper90_ÜBERKIKZ,Spaßbad Wedemark,Hannover,Germany,"Hannover, Germany","Hannover, Germany",6.269732449999999,9.7385532,"(52.3744779, 9.7385532)",52.3744779
DJ Hyperdrive,BCCO,2025-06-20T00:00:00.000,/events/2063306,Odymel_DJ Hyperdrive_future.666_DJ GUESTLIST_Cara Elizabeth_2HOT2PLAY_ANTHRAZIT_TOXIMAMI,Else,Berlin,Germany,"Berlin, Germany","Berlin, Germany",6.269732449999999,13.3989367,"(52.510885, 13.3989367)",52.510885
DJ Hyperdrive,Outset Ibiza with Onlynumbers & DJ Hyperdrive,2025-07-22T00:00:00.000,/events/2108654,DJ Hyperdrive,Eden,Ibiza,Spain,"Ibiza, Spain","Ibiza, Spain",6.269732449999999,1.4197463178515335,"(38.974390099999994, 1.4197463178515335)",38.974390099999994
DJ Hyperdrive,Echelon Festival 2025,2025-08-15T00:00:00.000,/events/2024185,6EJOU_999999999_Alfred Heinrichs_Angerfist_Azyr_CARV_Charlie Sparks_Deborah De Luca_DJ Hyperdrive_ÜBERKIKZ_Fantasm_Holy Priest_I Hate Models_Kalte Liebe_Monika Kruse_OGUZ_Schrotthagen_Somewhen_ZEUZ,US-Kaserne Bad Aibling,Bavaria,Germany,"Bavaria, Germany","Bavaria, Germany",6.269732449999999,11.4038717,"(48.9467562, 11.4038717)",48.9467562
DJ Hyperdrive,BCCO,2025-08-22T00:00:00.000,/events/2063340,Adrian Mills_PRADA 2000_Trancemaster Krause_DJ Hyperdrive_DJ GUESTLIST_Justin Tinderdate_EloTrance_DJ Cringey_ANTHRAZIT,Else,Berlin,Germany,"Berlin, Germany","Berlin, Germany",6.269732449999999,13.3989367,"(52.510885, 13.3989367)",52.510885
DJ Hyperdrive,BCCO,2025-09-20T00:00:00.000,/events/2084713,DJ Hyperdrive_Serafina,Amp,Münster,Germany,"Münster, Germany","Münster, Germany",6.269732449999999,7.6251879,"(51.9625101, 7.6251879)",51.9625101
EMILIJA,23 FEB - Thuishaven with Funk Tribu / Justin Jay / Supergloss ,2025-02-23T00:00:00.000,/events/2039394,Funk Tribu_Justin Jay_Supergloss_EMILIJA_Vall Du Son_Hurts_Julian Muller_Cybersex_Geo22_bebe bad,Thuishaven,Amsterdam,Netherlands,"Amsterdam, Netherlands","Amsterdam, Netherlands",6.269732449999999,4.8924534,"(52.3730796, 4.8924534)",52.3730796
EMILIJA,"Faster Horses [b2b All Night Long] ft. Benwal, Diffrent, EMILIJA + MORE",2025-03-21T00:00:00.000,/events/2082159,Faster Horses_Auramatic_Benwal_Diffrent_EMILIJA_Leaha_Mika Heggemann,The Cause,London,United Kingdom,"London, United Kingdom","London, United Kingdom",6.269732449999999,-0.1277653,"(51.5074456, -0.1277653)",51.5074456
